[
  {
    "title": "FIX",
    "address": "Элиста 17-я , 47",
    "latitude": 46.291062,
    "longitude": 44.231194
  },
  {
    "title": "Crocus food",
    "address": "Элиста Пюрбеева, 30",
    "latitude": 46.307506,
    "longitude": 44.313776
  },
  {
    "title": "Канзаши Sushi",
    "address": "Элиста Будённого, 7А",
    "latitude": 46.318231,
    "longitude": 44.260605
  },
  {
    "title": "Nice food",
    "address": "Элиста 28-й Армии, 87",
    "latitude": 46.315804,
    "longitude": 44.247912
  },
  {
    "title": "Magic Grill & Bar",
    "address": "Элиста Эсамбаева, 18",
    "latitude": 46.303105,
    "longitude": 44.31701
  },
  {
    "title": "Vapo Grill",
    "address": "Элиста 9-й микрорайон, 29Вс1",
    "latitude": 46.300701,
    "longitude": 44.311063
  },
  {
    "title": "Пицца Лайк",
    "address": "Элиста 8-й микрорайон, 49А",
    "latitude": 46.303702,
    "longitude": 44.314737
  },
  {
    "title": "Кафе РАЛЬФ",
    "address": "Элиста 3-й микрорайон, 17Б",
    "latitude": 46.318568,
    "longitude": 44.268896
  },
  {
    "title": "Корё",
    "address": "Элиста Номто Очирова, 5",
    "latitude": 46.30707,
    "longitude": 44.268816
  },
  {
    "title": "Кофейная История Элиста",
    "address": "Элиста 5-й микрорайон, 4А",
    "latitude": 46.323142,
    "longitude": 44.280925
  },
  {
    "title": "CRAFTBAR ВОСТОК",
    "address": "Элиста Будённого, 3А",
    "latitude": 46.318854,
    "longitude": 44.264719
  },
  {
    "title": "Орегано",
    "address": "Элиста Хрущёва, 29",
    "latitude": 46.302912,
    "longitude": 44.308997
  },
  {
    "title": "Гирос_08",
    "address": "Элиста 2-й микрорайон, 29",
    "latitude": 46.306722,
    "longitude": 44.304559
  },
  {
    "title": "Доставка Pomidor",
    "address": "Элиста Клыкова, 4",
    "latitude": 46.306541,
    "longitude": 44.272876
  },
  {
    "title": "Андерсен",
    "address": "Элиста Пушкина, 3А к1",
    "latitude": 46.304287,
    "longitude": 44.271807
  },
  {
    "title": "Selfie",
    "address": "Элиста 4-й микрорайон, 39к1",
    "latitude": 46.325227,
    "longitude": 44.280413
  },
  {
    "title": "Домашние полуфабрикаты от Гапара",
    "address": "Элиста Демьяновский, 40",
    "latitude": 46.320049,
    "longitude": 44.226478
  },
  {
    "title": "MEND BRO",
    "address": "Элиста 9-й микрорайон, 29А с2",
    "latitude": 46.299817,
    "longitude": 44.310551
  },
  {
    "title": "Gourmet",
    "address": "Элиста Илишкина, 21",
    "latitude": 46.303945,
    "longitude": 44.26772
  },
  {
    "title": "PRIDE Burger Club",
    "address": "Элиста Волгоградская , 36",
    "latitude": 46.318244,
    "longitude": 44.233377
  },
  {
    "title": "Марио Троицкое",
    "address": "село Троицкое, 50 лет Победы, 67",
    "latitude": 46.407009,
    "longitude": 44.263695
  },
  {
    "title": "Bella Ciao",
    "address": "Элиста Скрипкина, 1А",
    "latitude": 46.28821,
    "longitude": 44.271349
  },
  {
    "title": "Сән шашлык",
    "address": "Элиста  Алёхиных, 29А",
    "latitude": 46.310363,
    "longitude": 44.264081
  },
  {
    "title": "Этно-Хауз",
    "address": "Элиста Клыкова, 106А",
    "latitude": 46.309585,
    "longitude": 44.292845
  },
  {
    "title": "ELISBREW",
    "address": "Элиста  Ленина, 2А",
    "latitude": 46.312001,
    "longitude": 44.210182
  },
  {
    "title": "РИС",
    "address": "Элиста  Ленина, 280",
    "latitude": 46.312623,
    "longitude": 44.302107
  },
  {
    "title": "Марио Троицкое",
    "address": "Элиста 1-й микрорайон, 5В",
    "latitude": 46.316507,
    "longitude": 44.257191
  },
  {
    "title": "JOHNSON",
    "address": "Элиста 8-й микрорайон, 16",
    "latitude": 46.304151,
    "longitude": 44.306545
  },
  {
    "title": "Пловная Barbarise",
    "address": "Элиста Пюрбеева, 6",
    "latitude": 46.311384,
    "longitude": 44.300086
  },
  {
    "title": "DZEN EDA",
    "address": "Элиста Ростовский , 4",
    "latitude": 46.318207,
    "longitude": 44.244121
  },
  {
    "title": "Хинкальная",
    "address": "Элиста проспект имени Петра Анацкого, 4",
    "latitude": 46.305028,
    "longitude": 44.304973
  },
  {
    "title": "Magic Grill & Bar",
    "address": "Элиста Кирова, 9А",
    "latitude": 46.303378,
    "longitude": 44.25747
  },
  {
    "title": "SushiSan",
    "address": "Элиста 6-й микрорайон, 9А",
    "latitude": 46.302519,
    "longitude": 44.294031
  },
  {
    "title": "Сытый крот",
    "address": "Элиста Клыкова, 126",
    "latitude": 46.310208,
    "longitude": 44.297615
  },
  {
    "title": "Мастер суши - №2",
    "address": "Элиста 6-й микрорайон, 25",
    "latitude": 46.299643,
    "longitude": 44.289046
  },
  {
    "title": "MINARI",
    "address": "Элиста Петра Бураева, 25",
    "latitude": 46.286155,
    "longitude": 44.230844
  },
  {
    "title": "VOSTOK",
    "address": "Элиста Кирова, 157",
    "latitude": 46.296909,
    "longitude": 44.276819
  },
  {
    "title": "«Три Пирога»",
    "address": "Элиста Сухэ-Батора, 20",
    "latitude": 46.301019,
    "longitude": 44.292567
  },
  {
    "title": "Столовая №1",
    "address": "Элиста Клыкова, 90В",
    "latitude": 46.309156,
    "longitude": 44.290231
  },
  {
    "title": "ТерриторияВкуса",
    "address": "Элиста 9-й микрорайон, 31а",
    "latitude": 46.300708,
    "longitude": 44.313084
  },
  {
    "title": "Суши Даром",
    "address": "Элиста Ленина, 261",
    "latitude": 46.309386,
    "longitude": 44.271609
  },
  {
    "title": "Fruit Mix",
    "address": "Элиста проспект имени Петра Анацкого, 10с1",
    "latitude": 46.308029,
    "longitude": 44.306527
  },
  {
    "title": "EL FOOD",
    "address": "Элиста 1-й микрорайон, 5Г",
    "latitude": 46.318287,
    "longitude": 44.25667
  },
  {
    "title": "Steak House",
    "address": "Элиста Чкалова, 38",
    "latitude": 46.310693,
    "longitude": 44.276658
  },
  {
    "title": "Чебуречная",
    "address": "Элиста 1-й микрорайон, 26",
    "latitude": 46.317242,
    "longitude": 44.259752
  },
  {
    "title": "Место встречи",
    "address": "Элиста  Ленина, 335А",
    "latitude": 46.313656,
    "longitude": 44.297984
  },
  {
    "title": "Времена года",
    "address": "Элиста Байдукова, 42",
    "latitude": 46.300988,
    "longitude": 44.276406
  },
  {
    "title": "Друзья",
    "address": "Элиста Кирова, 1",
    "latitude": 46.305221,
    "longitude": 44.25552
  },
  {
    "title": "Марио",
    "address": "Элиста Хомутникова, 111А",
    "latitude": 46.316507,
    "longitude": 44.236036
  },
  {
    "title": "Жар - Птица",
    "address": "Элиста Ленина 14",
    "latitude": 46.309909,
    "longitude": 44.247822
  },
  {
    "title": "Токио Рим",
    "address": "Элиста 9-й микрорайон, 21",
    "latitude": 46.302463,
    "longitude": 44.309913
  },
  {
    "title": "KANNAM CHICKEN ELISTA",
    "address": "Элиста Клыкова, 22",
    "latitude": 46.307251,
    "longitude": 44.278194
  },
  {
    "title": "Пиццерия «Сицилия»",
    "address": "Элиста Пушкина, 38",
    "latitude": 46.31144,
    "longitude": 44.268735
  },
  {
    "title": "Oirad Community Center",
    "address": "Элиста Чапаева, 70",
    "latitude": 46.316694,
    "longitude": 44.277646
  },
  {
    "title": "Троицкий",
    "address": "Элиста  Джангара, 24",
    "latitude": 46.311247,
    "longitude": 44.254541
  },
  {
    "title": "EL PIZZA",
    "address": "Элиста 9-й микрорайон, 29/1",
    "latitude": 46.299525,
    "longitude": 44.310408
  },
  {
    "title": "Pizza Boom",
    "address": "Элиста 6-й микрорайон, 25Б",
    "latitude": 46.299761,
    "longitude": 44.289585
  },
  {
    "title": "Chipollino",
    "address": "Элиста  Ленина, 255А",
    "latitude": 46.309143,
    "longitude": 44.270334
  },
  {
    "title": "Раменная",
    "address": "Элиста 85К-6, 1-й километр",
    "latitude": 46.285134,
    "longitude": 44.228014
  },
  {
    "title": "Кафе Томико",
    "address": "Элиста   Пушкина, 3А",
    "latitude": 46.304287,
    "longitude": 44.271807
  },
  {
    "title": "Мастер суши - №1",
    "address": "Элиста бульвар имени Т. Бембеева, 5А",
    "latitude": 46.304555,
    "longitude": 44.313111
  },
  {
    "title": "Кафе Шашлычная",
    "address": "Элиста Пюрбеева, 2",
    "latitude": 46.312343,
    "longitude": 44.299179
  },
  {
    "title": "Кафе-шашлычная «У Намика»",
    "address": "Элиста 28-й Армии, 42",
    "latitude": 46.310158,
    "longitude": 44.246205
  },
  {
    "title": "Кафе Японо-итальяно",
    "address": "Элиста 9-й микрорайон, 29Бс1",
    "latitude": 46.300216,
    "longitude": 44.310776
  },
  {
    "title": "Берлога",
    "address": "Элиста Р-216, 320-й километр",
    "latitude": 46.299873,
    "longitude": 44.202547
  },
  {
    "title": "Chef Cafe",
    "address": "Элиста 1-й микрорайон, 37",
    "latitude": 46.321567,
    "longitude": 44.257092
  },
  {
    "title": "ШашлыкOFF_08",
    "address": "Элиста Володарского, 17",
    "latitude": 46.313314,
    "longitude": 44.242989
  },
  {
    "title": "Kikchak",
    "address": "Элиста  Ленина, 278А",
    "latitude": 46.312007,
    "longitude": 44.301218
  },
  {
    "title": "Пальчики оближешь",
    "address": "Элиста Басангова, 2",
    "latitude": 46.302314,
    "longitude": 44.270136
  },
  {
    "title": "Мега суши",
    "address": "Элиста  Будённого, 1А",
    "latitude": 46.318107,
    "longitude": 44.26542
  },
  {
    "title": "CRAFTBAR ЦЕНТР",
    "address": "Элиста  Ленина, 249",
    "latitude": 46.309006,
    "longitude": 44.269049
  },
  {
    "title": "Оптово-розничный склад КрупаМука",
    "address": "Элиста  Ленина 9, стр. 110",
    "latitude": 46.313762,
    "longitude": 44.218752
  },
  {
    "title": "Бургертайм08",
    "address": "Элиста проспект Чонкушова, 9А",
    "latitude": 46.319196,
    "longitude": 44.271052
  },
  {
    "title": "Palermo",
    "address": "Элиста Сухэ-Батора, 8",
    "latitude": 46.304424,
    "longitude": 44.297373
  },
  {
    "title": "Street Food",
    "address": "Элиста Сухэ-Батора, 19А",
    "latitude": 46.302949,
    "longitude": 44.294642
  },
  {
    "title": "Фудмаркет",
    "address": "Элиста Клыкова, 87б",
    "latitude": 46.311067,
    "longitude": 44.297319
  },
  {
    "title": "Tako bell",
    "address": "Элиста Губаревича, 5Б",
    "latitude": 46.308166,
    "longitude": 44.27293
  },
  {
    "title": "Калмыцкая кухня N1",
    "address": "Элиста Сухэ-Батора, 9",
    "latitude": 46.304916,
    "longitude": 44.297355
  },
  {
    "title": "Sushi Club",
    "address": "Элиста Садовая , 39",
    "latitude": 46.32031,
    "longitude": 44.229918
  },
  {
    "title": "Кафе Шлашык",
    "address": "Элиста Клыкова, 4",
    "latitude": 46.306541,
    "longitude": 44.272876
  },
  {
    "title": "Mr. Papa Grill",
    "address": "Элиста Номто Очирова, 4",
    "latitude": 46.306554,
    "longitude": 44.267755
  },
  {
    "title": "Кафе 7 - Я",
    "address": "Элиста  Ленина, 337",
    "latitude": 46.313389,
    "longitude": 44.298271
  },
  {
    "title": "Васаби",
    "address": "Элиста Максима Горького, 25",
    "latitude": 46.309592,
    "longitude": 44.267908
  }
]
