[
  {
    "address": "Россия, Республика Калмыкия, Элиста, площадь Ленина ",
    "longitude": "44.269732",
    "latitude": "46.307917",
    "name": "Ширяева Ольга Алексеевна",
    "phone": "79610000004"
  },
  {
    "address": "Россия, Республика Калмыкия, Элиста, Шахматная улица, 41 ",
    "longitude": "44.255763",
    "latitude": "46.323484",
    "name": "Корнеева Агата Давидовна",
    "phone": "79610000005"
  },
  {
    "address": "Россия, Республика Калмыкия, Элиста, 10-й микрорайон, 15 к1, подъезд 3 ",
    "longitude": "44.265052",
    "latitude": "46.32486",
    "name": "Попов Максим Тимофеевич",
    "phone": "79610000006"
  },
  {
    "address": "Россия, Республика Калмыкия, Элиста, улица Кутузова ",
    "longitude": "44.24952",
    "latitude": "46.31502",
    "name": "Виноградова Виктория Артёмовна",
    "phone": "79610000007"
  },
  {
    "address": "Россия, Республика Калмыкия, Элиста, 8-й микрорайон, 3 ",
    "longitude": "44.306257",
    "latitude": "46.306828",
    "name": "Коновалова Дарья Артёмовна",
    "phone": "79610000008"
  },
  {
    "address": "Россия, Республика Калмыкия, Элиста, 1-й микрорайон ",
    "longitude": "44.258233",
    "latitude": "46.316184",
    "name": "Кудрявцева Мария Ярославовна",
    "phone": "79610000009"
  },
  {
    "address": "Россия, Республика Калмыкия, Элиста, 6-й микрорайон, 13, подъезд 1 ",
    "longitude": "44.291812",
    "latitude": "46.30237",
    "name": "Шульгина Диана Евгеньевна",
    "phone": "79610000011"
  },
  {
    "address": "Россия, Республика Калмыкия, Элиста, Южная улица ",
    "longitude": "44.263372",
    "latitude": "46.294369",
    "name": "Борисова София Адамовна",
    "phone": "79610000012"
  },
  {
    "address": "Россия, Республика Калмыкия, Элиста, 8-й микрорайон, 58, подъезд 1 ",
    "longitude": "44.310911",
    "latitude": "46.303055",
    "name": "Ефимова Виктория Вадимовна",
    "phone": "79610000015"
  },
  {
    "address": "Россия, Республика Калмыкия, Элиста, 3-й микрорайон, 24, подъезд 5 ",
    "longitude": "44.27054",
    "latitude": "46.316345",
    "name": "Колпакова Варвара Максимовна",
    "phone": "79610000016"
  },
  {
    "address": "Россия, Республика Калмыкия, Элиста, Коммунистическая улица, 12 ",
    "longitude": "44.267369",
    "latitude": "46.301778",
    "name": "Михайлова София Петровна",
    "phone": "79610000018"
  },
  {
    "address": "Россия, Республика Калмыкия, Элиста,  Гермашева ",
    "longitude": "44.233152",
    "latitude": "46.315262",
    "name": "Кондрашова Мария Степановна",
    "phone": "79610000020"
  },
  {
    "address": "Россия, Республика Калмыкия, Элиста, 2-й микрорайон ",
    "longitude": "44.299655",
    "latitude": "46.308073",
    "name": "Попова Анастасия Ильинична",
    "phone": "79610000022"
  },
  {
    "address": "Россия, Республика Калмыкия, Элиста, 2-й микрорайон, 17 ",
    "longitude": "44.300778",
    "latitude": "46.308066",
    "name": "Нестеров Артём Константинович",
    "phone": "79610000023"
  },
  {
    "address": "Россия, Республика Калмыкия, Элиста, 10-й микрорайон, 18Б ",
    "longitude": "44.267531",
    "latitude": "46.325856",
    "name": "Жукова Татьяна Кирилловна",
    "phone": "79610000025"
  },
  {
    "address": "Россия, Республика Калмыкия, Элиста, 8-й микрорайон, 56 ",
    "longitude": "44.313049",
    "latitude": "46.302389",
    "name": "Овчинникова Маргарита Матвеевна",
    "phone": "79610000026"
  },
  {
    "address": "Россия, Республика Калмыкия, Элиста, 6-й микрорайон, 12, подъезд 4 ",
    "longitude": "44.292441",
    "latitude": "46.303347",
    "name": "Кузнецов Макар Михайлович",
    "phone": "79610000028"
  },
  {
    "address": "Россия, Республика Калмыкия, Элиста, улица Кнакиса, 35 ",
    "longitude": "44.217908",
    "latitude": "46.317646",
    "name": "Дроздов Максим Тимофеевич",
    "phone": "79610000029"
  },
  {
    "address": "Россия, Республика Калмыкия, Элиста, парк Дружба ",
    "longitude": "44.25623",
    "latitude": "46.306448",
    "name": "Алексеева Юлия Тимуровна",
    "phone": "79610000032"
  },
  {
    "address": "Россия, Республика Калмыкия, Элиста, 4-й микрорайон, 4 ",
    "longitude": "44.274816",
    "latitude": "46.321511",
    "name": "Петухов Артур Даниилович",
    "phone": "79610000035"
  },
  {
    "address": "Россия, Республика Калмыкия, Элиста, улица Г.Д. Эрдниева ",
    "longitude": "44.26498",
    "latitude": "46.301156",
    "name": "Давыдова Марьяна Всеволодовна",
    "phone": "79610000037"
  },
  {
    "address": "Россия, Республика Калмыкия, Элиста, 9-й микрорайон, 44 ",
    "longitude": "44.307012",
    "latitude": "46.300496",
    "name": "Тимофеева Надежда Глебовна",
    "phone": "79610000038"
  },
  {
    "address": "Россия, Республика Калмыкия, Элиста, улица Урлдан, 7 ",
    "longitude": "44.233233",
    "latitude": "46.324903",
    "name": "Сергеева Василиса Александровна",
    "phone": "79610000041"
  },
  {
    "address": "Россия, Республика Калмыкия, Элиста, 9-й микрорайон, 58, подъезд 1 ",
    "longitude": "44.311459",
    "latitude": "46.297582",
    "name": "Кононов Николай Иванович",
    "phone": "79610000043"
  },
  {
    "address": "Россия, Республика Калмыкия, Элиста, Солнечный , 8 ",
    "longitude": "44.207398",
    "latitude": "46.31469",
    "name": "Рыбакова София Семёновна",
    "phone": "79610000045"
  },
  {
    "address": "Россия, Республика Калмыкия, Элиста, 9-й микрорайон, 31 ",
    "longitude": "44.312051",
    "latitude": "46.300614",
    "name": "Фролов Денис Эмирович",
    "phone": "79610000047"
  },
  {
    "address": "Россия, Республика Калмыкия, Элиста, 2-й микрорайон, 23А ",
    "longitude": "44.303841",
    "latitude": "46.308938",
    "name": "Курочкина Дарья Львовна",
    "phone": "79610000049"
  },
  {
    "address": "Россия, Республика Калмыкия, Элиста, 8-й микрорайон ",
    "longitude": "44.311198",
    "latitude": "46.305091",
    "name": "Быкова Ева Алиевна",
    "phone": "79610000051"
  },
  {
    "address": "Россия, Республика Калмыкия, Элиста, 10-й микрорайон, 19, подъезд 4 ",
    "longitude": "44.266094",
    "latitude": "46.326515",
    "name": "Панков Алексей Ильич",
    "phone": "79610000053"
  },
  {
    "address": "Россия, Республика Калмыкия, Элиста, 10-й микрорайон, 133 ",
    "longitude": "44.279164",
    "latitude": "46.327349",
    "name": "Смирнова Василиса Никитична",
    "phone": "79610000054"
  },
  {
    "address": "Россия, Республика Калмыкия, Элиста, улица Номинханова ",
    "longitude": "44.237383",
    "latitude": "46.302656",
    "name": "Трофимова София Никитична",
    "phone": "79610000055"
  },
  {
    "address": "Россия, Республика Калмыкия, Элиста, 3-й микрорайон, 24, подъезд 2 ",
    "longitude": "44.271124",
    "latitude": "46.316358",
    "name": "Филиппов Кирилл Максимович",
    "phone": "79610000057"
  },
  {
    "address": "Россия, Республика Калмыкия, Элиста, 8-й микрорайон, 54, подъезд 6 ",
    "longitude": "44.314872",
    "latitude": "46.302003",
    "name": "Фролов Никита Андреевич",
    "phone": "79610000058"
  },
  {
    "address": "Россия, Республика Калмыкия, Элиста, 9-й микрорайон ",
    "longitude": "44.308701",
    "latitude": "46.299089",
    "name": "Чернов Михаил Григорьевич",
    "phone": "79610000059"
  },
  {
    "address": "Россия, Республика Калмыкия, Элиста, 9-й микрорайон, 8 ",
    "longitude": "44.304434",
    "latitude": "46.302158",
    "name": "Павлова Яна Евгеньевна",
    "phone": "79610000060"
  },
  {
    "address": "Россия, Республика Калмыкия, Элиста, Ипподромная улица, 13 ",
    "longitude": "44.234841",
    "latitude": "46.321518",
    "name": "Тихонова Ксения Платоновна",
    "phone": "79610000061"
  },
  {
    "address": "Россия, Республика Калмыкия, Элиста, 1-й микрорайон, 19 ",
    "longitude": "44.257578",
    "latitude": "46.315194",
    "name": "Успенский Анатолий Дмитриевич",
    "phone": "79610000062"
  },
  {
    "address": "Россия, Республика Калмыкия, Элиста, 9-й микрорайон, 23 ",
    "longitude": "44.311252",
    "latitude": "46.302108",
    "name": "Громов Алексей Матвеевич",
    "phone": "79610000067"
  },
  {
    "address": "Россия, Республика Калмыкия, Элиста, 4-й микрорайон, 40, подъезд 4 ",
    "longitude": "44.278481",
    "latitude": "46.325681",
    "name": "Федоров Макар Никитич",
    "phone": "79610000070"
  },
  {
    "address": "Россия, Республика Калмыкия, Элиста, улица Герасименко, 5А ",
    "longitude": "44.281149",
    "latitude": "46.312088",
    "name": "Скворцова Алина Кирилловна",
    "phone": "79610000073"
  },
  {
    "address": "Россия, Республика Калмыкия, Элиста, 9-й микрорайон, 23, подъезд 1 ",
    "longitude": "44.310893",
    "latitude": "46.302009",
    "name": "Макаров Михаил Егорович",
    "phone": "79610000075"
  },
  {
    "address": "Россия, Республика Калмыкия, Элиста, 2-й микрорайон, 36, подъезд 4 ",
    "longitude": "44.295855",
    "latitude": "46.306666",
    "name": "Гусев Фёдор Никитич",
    "phone": "79610000076"
  },
  {
    "address": "Россия, Республика Калмыкия, Элиста,  Мечникова, 7 ",
    "longitude": "44.28309",
    "latitude": "46.316134",
    "name": "Васильев Матвей Михайлович",
    "phone": "79610000078"
  },
  {
    "address": "Россия, Республика Калмыкия, Элиста, 9-й микрорайон, 46 ",
    "longitude": "44.307623",
    "latitude": "46.300845",
    "name": "Родионова Амина Мироновна",
    "phone": "79610000079"
  },
  {
    "address": "Россия, Республика Калмыкия, Элиста, проспект Чонкушова, 2 ",
    "longitude": "44.265582",
    "latitude": "46.319489",
    "name": "Иванов Даниэль Никитич",
    "phone": "79610000082"
  },
  {
    "address": "Россия, Республика Калмыкия, Элиста, улица Геодезистов, 6 ",
    "longitude": "44.250122",
    "latitude": "46.325046",
    "name": "Федотова Анна Егоровна",
    "phone": "79610000083"
  },
  {
    "address": "Россия, Республика Калмыкия, Элиста, улица М. Пюрвеева, 8 ",
    "longitude": "44.291327",
    "latitude": "46.298435",
    "name": "Осипова Амира Ивановна",
    "phone": "79610000084"
  },
  {
    "address": "Россия, Республика Калмыкия, Элиста, 3-й микрорайон, 22 ",
    "longitude": "44.268321",
    "latitude": "46.316252",
    "name": "Яковлев Семён Львович",
    "phone": "79610000085"
  },
  {
    "address": "Россия, Республика Калмыкия, Элиста, Волгоградский переулок ",
    "longitude": "44.230143",
    "latitude": "46.318219",
    "name": "Федорова Эмилия Ивановна",
    "phone": "79610000090"
  },
  {
    "address": "Россия, Республика Калмыкия, Элиста, улица А. Сусеева, 9 ",
    "longitude": "44.267603",
    "latitude": "46.305147",
    "name": "Щербаков Кирилл Максимович",
    "phone": "79610000092"
  },
  {
    "address": "Россия, Республика Калмыкия, Элиста, 4-й микрорайон, 31, подъезд 3 ",
    "longitude": "44.278679",
    "latitude": "46.324013",
    "name": "Рудакова Валерия Александровна",
    "phone": "79610000095"
  },
  {
    "address": "Россия, Республика Калмыкия, Элиста, 6-й микрорайон, 25 ",
    "longitude": "44.289046",
    "latitude": "46.299643",
    "name": "Маркина Амалия Макаровна",
    "phone": "79610000096"
  },
  {
    "address": "Россия, Республика Калмыкия, Элиста, 3-й микрорайон, 23, подъезд 1 ",
    "longitude": "44.26984",
    "latitude": "46.316339",
    "name": "Савельев Кирилл Иванович",
    "phone": "79610000097"
  },
  {
    "address": "Россия, Республика Калмыкия, Элиста, 4-й микрорайон, 19 ",
    "longitude": "44.278356",
    "latitude": "46.32046",
    "name": "Ширяева Ольга Алексеевна",
    "phone": "79610000103"
  },
  {
    "address": "Россия, Республика Калмыкия, Элиста, улица Гоголя ",
    "longitude": "44.268429",
    "latitude": "46.295857",
    "name": "Корнеева Агата Давидовна",
    "phone": "79610000104"
  },
  {
    "address": "Россия, Республика Калмыкия, Элиста, Колонский пруд ",
    "longitude": "44.264872",
    "latitude": "46.3228",
    "name": "Дмитриев Иван Михайлович",
    "phone": "79610000107"
  },
  {
    "address": "Россия, Республика Калмыкия, Элиста, 3-й микрорайон, 14 ",
    "longitude": "44.270936",
    "latitude": "46.318487",
    "name": "Новиков Арсений Матвеевич",
    "phone": "79610000108"
  },
  {
    "address": "Россия, Республика Калмыкия, Элиста, 4-й микрорайон ",
    "longitude": "44.27567",
    "latitude": "46.322613",
    "name": "Корнеева Агата Давидовна",
    "phone": "79610000110"
  },
  {
    "address": "Россия, Республика Калмыкия, Элиста, 3-й микрорайон, 10 ",
    "longitude": "44.273334",
    "latitude": "46.318032",
    "name": "Кудрявцева Мария Ярославовна",
    "phone": "79610000114"
  },
  {
    "address": "Россия, Республика Калмыкия, Элиста, улица Г. Молоканова, 38 ",
    "longitude": "44.273127",
    "latitude": "46.315032",
    "name": "Шульгина Диана Евгеньевна",
    "phone": "79610000116"
  },
  {
    "address": "Россия, Республика Калмыкия, Элиста, 9-й микрорайон, 33 ",
    "longitude": "44.311198",
    "latitude": "46.299188",
    "name": "Борисова София Адамовна",
    "phone": "79610000117"
  },
  {
    "address": "Россия, Республика Калмыкия, Элиста, 4-й микрорайон, 48 ",
    "longitude": "44.271627",
    "latitude": "46.32364",
    "name": "Колпакова Варвара Максимовна",
    "phone": "79610000121"
  },
  {
    "address": "Россия, Республика Калмыкия, Элиста, 4-й микрорайон, 46, подъезд 2 ",
    "longitude": "44.273145",
    "latitude": "46.324381",
    "name": "Семенова Дарья Арсентьевна",
    "phone": "79610000124"
  },
  {
    "address": "Россия, Республика Калмыкия, Элиста, 9-й микрорайон, 32, подъезд 1 ",
    "longitude": "44.311432",
    "latitude": "46.300097",
    "name": "Кондрашова Мария Степановна",
    "phone": "79610000125"
  },
  {
    "address": "Россия, Республика Калмыкия, Элиста, 2-й микрорайон, 30 ",
    "longitude": "44.303535",
    "latitude": "46.306771",
    "name": "Нестеров Артём Константинович",
    "phone": "79610000128"
  },
  {
    "address": "Россия, Республика Калмыкия, Элиста, 8-й микрорайон, 65 ",
    "longitude": "44.309455",
    "latitude": "46.304231",
    "name": "Жукова Татьяна Кирилловна",
    "phone": "79610000130"
  },
  {
    "address": "Россия, Республика Калмыкия, Элиста, въезд Добровольского, 3 ",
    "longitude": "44.222642",
    "latitude": "46.319177",
    "name": "Овчинникова Маргарита Матвеевна",
    "phone": "79610000131"
  },
  {
    "address": "Россия, Республика Калмыкия, Элиста, 1-й микрорайон, 3 ",
    "longitude": "44.254685",
    "latitude": "46.317036",
    "name": "Соловьев Тимофей Тимурович",
    "phone": "79610000132"
  },
  {
    "address": "Россия, Республика Калмыкия, Элиста, 6-й микрорайон ",
    "longitude": "44.292576",
    "latitude": "46.302606",
    "name": "Кузнецов Макар Михайлович",
    "phone": "79610000133"
  },
  {
    "address": "Россия, Республика Калмыкия, Элиста, улица Лизы Чайкиной, 16 ",
    "longitude": "44.291345",
    "latitude": "46.307562",
    "name": "Дроздов Максим Тимофеевич",
    "phone": "79610000134"
  },
  {
    "address": "Россия, Республика Калмыкия, Элиста, 1-й микрорайон, 33 ",
    "longitude": "44.263228",
    "latitude": "46.31675",
    "name": "Колпакова Анна Алексеевна",
    "phone": "79610000136"
  },
  {
    "address": "Россия, Республика Калмыкия, Элиста, 5-й микрорайон, 2, подъезд 3 ",
    "longitude": "44.283458",
    "latitude": "46.323988",
    "name": "Горохов Александр Артёмович",
    "phone": "79610000138"
  },
  {
    "address": "Россия, Республика Калмыкия, Элиста, 9-й микрорайон, 33, подъезд 5 ",
    "longitude": "44.311153",
    "latitude": "46.299637",
    "name": "Петров Даниэль Павлович",
    "phone": "79610000139"
  },
  {
    "address": "Россия, Республика Калмыкия, Элиста, улица Хочинова ",
    "longitude": "44.235102",
    "latitude": "46.306697",
    "name": "Беликов Даниил Арсентьевич",
    "phone": "79610000144"
  },
  {
    "address": "Россия, Республика Калмыкия, Элиста, 4-й микрорайон, 19, подъезд 1 ",
    "longitude": "44.278472",
    "latitude": "46.320808",
    "name": "Быкова Надежда Марковна",
    "phone": "79610000147"
  },
  {
    "address": "Россия, Республика Калмыкия, Элиста, 3-й микрорайон, 1, подъезд 2 ",
    "longitude": "44.277565",
    "latitude": "46.317908",
    "name": "Матвеева Владислава Артёмовна",
    "phone": "79610000151"
  },
  {
    "address": "Россия, Республика Калмыкия, Элиста, 4-й микрорайон, 3 ",
    "longitude": "44.274798",
    "latitude": "46.322121",
    "name": "Курочкина Дарья Львовна",
    "phone": "79610000154"
  },
  {
    "address": "Россия, Республика Калмыкия, Элиста, улица Г.О. Рокчинского, 17, подъезд 1 ",
    "longitude": "44.270747",
    "latitude": "46.323796",
    "name": "Быкова Ева Алиевна",
    "phone": "79610000156"
  },
  {
    "address": "Россия, Республика Калмыкия, Элиста, 8-й микрорайон, 6 ",
    "longitude": "44.30526",
    "latitude": "46.304754",
    "name": "Панков Алексей Ильич",
    "phone": "79610000158"
  },
  {
    "address": "Россия, Республика Калмыкия, Элиста, улица Чапаева, 71 ",
    "longitude": "44.277951",
    "latitude": "46.316377",
    "name": "Смирнова Василиса Никитична",
    "phone": "79610000159"
  },
  {
    "address": "Россия, Республика Калмыкия, Элиста, 4-й микрорайон, 34, подъезд 1 ",
    "longitude": "44.279335",
    "latitude": "46.324941",
    "name": "Трофимова София Никитична",
    "phone": "79610000160"
  },
  {
    "address": "Россия, Республика Калмыкия, Элиста, улица А.С. Пушкина, 18 ",
    "longitude": "44.269238",
    "latitude": "46.307338",
    "name": "Тимофеева Майя Святославовна",
    "phone": "79610000161"
  },
  {
    "address": "Россия, Республика Калмыкия, Элиста, 9-й микрорайон, 26 ",
    "longitude": "44.312015",
    "latitude": "46.301274",
    "name": "Филиппов Кирилл Максимович",
    "phone": "79610000162"
  },
  {
    "address": "Россия, Республика Калмыкия, Элиста, Полынная улица, 52 ",
    "longitude": "44.243537",
    "latitude": "46.330156",
    "name": "Фролов Никита Андреевич",
    "phone": "79610000163"
  },
  {
    "address": "Россия, Республика Калмыкия, Элиста,  Чкалова, 12 ",
    "longitude": "44.278598",
    "latitude": "46.306828",
    "name": "Павлова Яна Евгеньевна",
    "phone": "79610000165"
  },
  {
    "address": "Россия, Республика Калмыкия, Элиста, улица К. Илюмжинова ",
    "longitude": "44.28344",
    "latitude": "46.305501",
    "name": "Макарова Полина Владиславовна",
    "phone": "79610000169"
  },
  {
    "address": "Россия, Республика Калмыкия, Элиста, улица 8 Марта, 26Б, подъезд 2 ",
    "longitude": "44.238973",
    "latitude": "46.31896",
    "name": "Смирнова Таисия Данииловна",
    "phone": "79610000171"
  },
  {
    "address": "Россия, Республика Калмыкия, Элиста, 1-й микрорайон, 12А ",
    "longitude": "44.254263",
    "latitude": "46.313781",
    "name": "Громов Алексей Матвеевич",
    "phone": "79610000172"
  },
  {
    "address": "Россия, Республика Калмыкия, Элиста, 1-й микрорайон, 34, подъезд 4 ",
    "longitude": "44.262177",
    "latitude": "46.31713",
    "name": "Золотарева Анастасия Данильевна",
    "phone": "79610000173"
  },
  {
    "address": "Россия, Республика Калмыкия, Элиста, 7-й микрорайон ",
    "longitude": "44.299556",
    "latitude": "46.303217",
    "name": "Соколов Тимофей Максимович",
    "phone": "79610000174"
  },
  {
    "address": "Россия, Республика Калмыкия, Элиста, 1-й микрорайон, 18 ",
    "longitude": "44.257299",
    "latitude": "46.314684",
    "name": "Александрова Елизавета Львовна",
    "phone": "79610000176"
  },
  {
    "address": "Россия, Республика Калмыкия, Элиста, проспект Чонкушова, 1 ",
    "longitude": "44.266633",
    "latitude": "46.319134",
    "name": "Ильинский Михаил Максимович",
    "phone": "79610000177"
  },
  {
    "address": "Россия, Республика Калмыкия, Элиста, 8-й микрорайон, 49 ",
    "longitude": "44.315402",
    "latitude": "46.303422",
    "name": "Скворцова Алина Кирилловна",
    "phone": "79610000178"
  },
  {
    "address": "Россия, Республика Калмыкия, Элиста, проспект О. Бендера ",
    "longitude": "44.308844",
    "latitude": "46.312275",
    "name": "Маркова Елизавета Михайловна",
    "phone": "79610000179"
  },
  {
    "address": "Россия, Республика Калмыкия, Элиста, 1-й микрорайон, 1А ",
    "longitude": "44.257182",
    "latitude": "46.319258",
    "name": "Васильев Матвей Михайлович",
    "phone": "79610000183"
  },
  {
    "address": "Россия, Республика Калмыкия, Элиста, 1-й микрорайон, 35, подъезд 1 ",
    "longitude": "44.262051",
    "latitude": "46.316713",
    "name": "Иванов Даниэль Никитич",
    "phone": "79610000187"
  },
  {
    "address": "Россия, Республика Калмыкия, Элиста, улица Скрипкина, 74 ",
    "longitude": "44.256482",
    "latitude": "46.289705",
    "name": "Федотова Анна Егоровна",
    "phone": "79610000188"
  },
  {
    "address": "Россия, Республика Калмыкия, Элиста, улица Чернышевского, 31 ",
    "longitude": "44.260551",
    "latitude": "46.299008",
    "name": "Осипова Амира Ивановна",
    "phone": "79610000189"
  },
  {
    "address": "Россия, Республика Калмыкия, Элиста, 2-й микрорайон, 13Б ",
    "longitude": "44.301056",
    "latitude": "46.305632",
    "name": "Тихонова Дарья Робертовна",
    "phone": "79610000194"
  },
  {
    "address": "Россия, Республика Калмыкия, Элиста, 3-й микрорайон, 1, подъезд 1 ",
    "longitude": "44.277349",
    "latitude": "46.317902",
    "name": "Федорова Эмилия Ивановна",
    "phone": "79610000195"
  },
  {
    "address": "Россия, Республика Калмыкия, Элиста, улица Чкалова, 14 ",
    "longitude": "44.277906",
    "latitude": "46.306579",
    "name": "Горбунов Иван Ильич",
    "phone": "79610000196"
  },
  {
    "address": "Россия, Республика Калмыкия, Элиста, улица 8 Марта, 26Б ",
    "longitude": "44.238893",
    "latitude": "46.319003",
    "name": "Рудакова Валерия Александровна",
    "phone": "79610000200"
  },
  {
    "address": "Россия, Республика Калмыкия, Элиста, 8-й микрорайон, 64, подъезд 2 ",
    "longitude": "44.309473",
    "latitude": "46.303422",
    "name": "Миронов Сергей Максимович",
    "phone": "79610000203"
  },
  {
    "address": "Россия, Республика Калмыкия, Элиста, Кирпичный переулок, 35 ",
    "longitude": "44.280808",
    "latitude": "46.316756",
    "name": "Лапшин Артемий Макарович",
    "phone": "79610000204"
  },
  {
    "address": "Россия, Республика Калмыкия, Элиста, Республиканская улица, 14 ",
    "longitude": "44.263506",
    "latitude": "46.309691",
    "name": "Демидова Диана Георгиевна",
    "phone": "79610000205"
  },
  {
    "address": "Россия, Республика Калмыкия, Элиста, улица 8 Марта, 62 ",
    "longitude": "44.237365",
    "latitude": "46.319694",
    "name": "Ширяева Ольга Алексеевна",
    "phone": "79610000208"
  },
  {
    "address": "Россия, Республика Калмыкия, Элиста, улица В. Манджиева ",
    "longitude": "44.284967",
    "latitude": "46.306672",
    "name": "Корнеева Агата Давидовна",
    "phone": "79610000209"
  },
  {
    "address": "Россия, Республика Калмыкия, Элиста, 8-й микрорайон, 30, подъезд 2 ",
    "longitude": "44.31604",
    "latitude": "46.306018",
    "name": "Демидова Диана Георгиевна",
    "phone": "79610000211"
  },
  {
    "address": "Россия, Республика Калмыкия, Элиста, 8-й микрорайон, 12А, подъезд 1 ",
    "longitude": "44.308072",
    "latitude": "46.306136",
    "name": "Дмитриев Иван Михайлович",
    "phone": "79610000212"
  },
  {
    "address": "Россия, Республика Калмыкия, Элиста, 8-й микрорайон, 55, подъезд 5 ",
    "longitude": "44.313129",
    "latitude": "46.303185",
    "name": "Новиков Арсений Матвеевич",
    "phone": "79610000213"
  },
  {
    "address": "Россия, Республика Калмыкия, Элиста, 5-й микрорайон, с16 ",
    "longitude": "44.286297",
    "latitude": "46.320167",
    "name": "Шульгина Диана Евгеньевна",
    "phone": "79610000221"
  },
  {
    "address": "Россия, Республика Калмыкия, Элиста, Тенистый переулок, 5 ",
    "longitude": "44.226262",
    "latitude": "46.304866",
    "name": "Борисова София Адамовна",
    "phone": "79610000222"
  },
  {
    "address": "Россия, Республика Калмыкия, Элиста, 4-й микрорайон, 48, подъезд 3 ",
    "longitude": "44.271735",
    "latitude": "46.32359",
    "name": "Андреев Данила Эминович",
    "phone": "79610000223"
  },
  {
    "address": "Россия, Республика Калмыкия, Элиста, 9-й микрорайон, 21 ",
    "longitude": "44.309913",
    "latitude": "46.302463",
    "name": "Васильева Ясмина Даниловна",
    "phone": "79610000224"
  },
  {
    "address": "Россия, Республика Калмыкия, Элиста, улица Николаева, 45 ",
    "longitude": "44.249124",
    "latitude": "46.30407",
    "name": "Ефимова Виктория Вадимовна",
    "phone": "79610000225"
  },
  {
    "address": "Россия, Республика Калмыкия, Элиста, 9-й микрорайон, 14 ",
    "longitude": "44.303643",
    "latitude": "46.301585",
    "name": "Колпакова Варвара Максимовна",
    "phone": "79610000226"
  },
  {
    "address": "Россия, Республика Калмыкия, Элиста, 8-й микрорайон, 27 ",
    "longitude": "44.313677",
    "latitude": "46.306709",
    "name": "Семенова Дарья Арсентьевна",
    "phone": "79610000229"
  },
  {
    "address": "Россия, Республика Калмыкия, Элиста, 8-й микрорайон, 31, подъезд 1 ",
    "longitude": "44.317414",
    "latitude": "46.305676",
    "name": "Беляева Анна Марковна",
    "phone": "79610000231"
  },
  {
    "address": "Россия, Республика Калмыкия, Элиста, улица Хонинова, 4 ",
    "longitude": "44.264665",
    "latitude": "46.3058",
    "name": "Попова Анастасия Ильинична",
    "phone": "79610000232"
  },
  {
    "address": "Россия, Республика Калмыкия, Элиста, Аршанская улица, 4 ",
    "longitude": "44.239216",
    "latitude": "46.288621",
    "name": "Нестеров Артём Константинович",
    "phone": "79610000233"
  },
  {
    "address": "Россия, Республика Калмыкия, Элиста, 9-й микрорайон, 6 ",
    "longitude": "44.303401",
    "latitude": "46.302289",
    "name": "Жукова Татьяна Кирилловна",
    "phone": "79610000235"
  },
  {
    "address": "Россия, Республика Калмыкия, Элиста, 10-я улица ",
    "longitude": "44.263228",
    "latitude": "46.286697",
    "name": "Овчинникова Маргарита Матвеевна",
    "phone": "79610000236"
  },
  {
    "address": "Россия, Республика Калмыкия, Элиста, 3-й микрорайон, 8А ",
    "longitude": "44.272274",
    "latitude": "46.31881",
    "name": "Назаров Даниил Иванович",
    "phone": "79610000240"
  },
  {
    "address": "Россия, Республика Калмыкия, Элиста, улица Губаревича, 13 ",
    "longitude": "44.271996",
    "latitude": "46.309872",
    "name": "Алексеева Юлия Тимуровна",
    "phone": "79610000242"
  },
  {
    "address": "Россия, Республика Калмыкия, Элиста, улица К. Илюмжинова, 6 ",
    "longitude": "44.281742",
    "latitude": "46.309666",
    "name": "Горохов Александр Артёмович",
    "phone": "79610000243"
  },
  {
    "address": "Россия, Республика Калмыкия, Элиста, 1-й микрорайон, 12, подъезд 6 ",
    "longitude": "44.25393",
    "latitude": "46.313482",
    "name": "Петров Даниэль Павлович",
    "phone": "79610000244"
  },
  {
    "address": "Россия, Республика Калмыкия, Элиста, 8-й микрорайон, 30 ",
    "longitude": "44.316462",
    "latitude": "46.305968",
    "name": "Мельников Алексей Владимирович",
    "phone": "79610000246"
  },
  {
    "address": "Россия, Республика Калмыкия, Элиста, Полынная улица, 51А ",
    "longitude": "44.241704",
    "latitude": "46.330877",
    "name": "Давыдова Марьяна Всеволодовна",
    "phone": "79610000247"
  },
  {
    "address": "Россия, Республика Калмыкия, Элиста, 4-й микрорайон, 5, подъезд 2 ",
    "longitude": "44.273487",
    "latitude": "46.322109",
    "name": "Тимофеева Надежда Глебовна",
    "phone": "79610000248"
  },
  {
    "address": "Россия, Республика Калмыкия, Элиста, 3-й микрорайон, 18 ",
    "longitude": "44.268914",
    "latitude": "46.317503",
    "name": "Беликов Даниил Арсентьевич",
    "phone": "79610000249"
  },
  {
    "address": "Россия, Республика Калмыкия, Элиста, 8-й микрорайон, 34, подъезд 2 ",
    "longitude": "44.31639",
    "latitude": "46.304126",
    "name": "Богданов Адам Макарович",
    "phone": "79610000250"
  },
  {
    "address": "Россия, Республика Калмыкия, Элиста, 3-й микрорайон ",
    "longitude": "44.2731",
    "latitude": "46.318269",
    "name": "Быкова Надежда Марковна",
    "phone": "79610000252"
  },
  {
    "address": "Россия, Республика Калмыкия, Элиста, 10-й микрорайон, 19 ",
    "longitude": "44.266363",
    "latitude": "46.326472",
    "name": "Овчинников Даниил Александрович",
    "phone": "79610000254"
  },
  {
    "address": "Россия, Республика Калмыкия, Элиста, 9-й микрорайон, 23, подъезд 8 ",
    "longitude": "44.311333",
    "latitude": "46.301554",
    "name": "Рыбакова София Семёновна",
    "phone": "79610000255"
  },
  {
    "address": "Россия, Республика Калмыкия, Элиста, 9-й микрорайон, 52, подъезд 4 ",
    "longitude": "44.309653",
    "latitude": "46.298896",
    "name": "Матвеева Владислава Артёмовна",
    "phone": "79610000256"
  },
  {
    "address": "Россия, Республика Калмыкия, Элиста, улица К. Илюмжинова, 6, подъезд 1 ",
    "longitude": "44.281599",
    "latitude": "46.309598",
    "name": "Курочкина Дарья Львовна",
    "phone": "79610000259"
  },
  {
    "address": "Россия, Республика Калмыкия, Элиста, 5-й микрорайон ",
    "longitude": "44.283916",
    "latitude": "46.32163",
    "name": "Гордеев Пётр Макарович",
    "phone": "79610000262"
  },
  {
    "address": "Россия, Республика Калмыкия, Элиста, 4-й микрорайон, 7 ",
    "longitude": "44.272508",
    "latitude": "46.321692",
    "name": "Панков Алексей Ильич",
    "phone": "79610000263"
  },
  {
    "address": "Россия, Республика Калмыкия, Элиста, 2-й микрорайон, 40, подъезд 1 ",
    "longitude": "44.29581",
    "latitude": "46.308029",
    "name": "Смирнова Василиса Никитична",
    "phone": "79610000264"
  },
  {
    "address": "Россия, Республика Калмыкия, Элиста, 1-й микрорайон, 23, подъезд 6 ",
    "longitude": "44.258799",
    "latitude": "46.315094",
    "name": "Филиппов Кирилл Максимович",
    "phone": "79610000267"
  },
  {
    "address": "Россия, Республика Калмыкия, Элиста, 1-й микрорайон, 46, подъезд 2 ",
    "longitude": "44.256221",
    "latitude": "46.312972",
    "name": "Тихонова Ксения Платоновна",
    "phone": "79610000271"
  },
  {
    "address": "Россия, Республика Калмыкия, Элиста, 9-й микрорайон, 33, подъезд 2 ",
    "longitude": "44.311297",
    "latitude": "46.299238",
    "name": "Успенский Анатолий Дмитриевич",
    "phone": "79610000272"
  },
  {
    "address": "Россия, Республика Калмыкия, Элиста, 4-й микрорайон, 51 ",
    "longitude": "44.272885",
    "latitude": "46.322962",
    "name": "Макарова Полина Владиславовна",
    "phone": "79610000274"
  },
  {
    "address": "Россия, Республика Калмыкия, Элиста, 1-й микрорайон, 12, подъезд 3 ",
    "longitude": "44.254487",
    "latitude": "46.313358",
    "name": "Николаева Ева Михайловна",
    "phone": "79610000275"
  },
  {
    "address": "Россия, Республика Калмыкия, Элиста, улица Сухэ-Батора ",
    "longitude": "44.293914",
    "latitude": "46.302177",
    "name": "Золотарева Анастасия Данильевна",
    "phone": "79610000278"
  },
  {
    "address": "Россия, Республика Калмыкия, Элиста, 9-й микрорайон, 53, подъезд 6 ",
    "longitude": "44.311225",
    "latitude": "46.298647",
    "name": "Соколов Тимофей Максимович",
    "phone": "79610000279"
  },
  {
    "address": "Россия, Республика Калмыкия, Элиста, 3-й микрорайон, 21 ",
    "longitude": "44.268366",
    "latitude": "46.316694",
    "name": "Федоров Макар Никитич",
    "phone": "79610000280"
  },
  {
    "address": "Россия, Республика Калмыкия, Элиста, улица 8 Марта, 36, подъезд 2 ",
    "longitude": "44.235686",
    "latitude": "46.319719",
    "name": "Ильинский Михаил Максимович",
    "phone": "79610000282"
  },
  {
    "address": "Россия, Республика Калмыкия, Элиста, улица Маяковского, 116А ",
    "longitude": "44.251819",
    "latitude": "46.297906",
    "name": "Скворцова Алина Кирилловна",
    "phone": "79610000283"
  },
  {
    "address": "Россия, Республика Калмыкия, Элиста, 5-й микрорайон, 6 ",
    "longitude": "44.285659",
    "latitude": "46.31886",
    "name": "Гусев Фёдор Никитич",
    "phone": "79610000286"
  },
  {
    "address": "Россия, Республика Калмыкия, Элиста, 2-й микрорайон, 13, подъезд 4 ",
    "longitude": "44.299906",
    "latitude": "46.305931",
    "name": "Волкова Виктория Егоровна",
    "phone": "79610000287"
  },
  {
    "address": "Россия, Республика Калмыкия, Элиста, улица А.С. Пушкина, 19 ",
    "longitude": "44.269876",
    "latitude": "46.310258",
    "name": "Васильев Матвей Михайлович",
    "phone": "79610000288"
  },
  {
    "address": "Россия, Республика Калмыкия, Элиста, 10-й микрорайон ",
    "longitude": "44.268097",
    "latitude": "46.327965",
    "name": "Поздняков Максим Захарович",
    "phone": "79610000290"
  },
  {
    "address": "Россия, Республика Калмыкия, Элиста, 4-й микрорайон, 29, подъезд 2 ",
    "longitude": "44.279649",
    "latitude": "46.32313",
    "name": "Ковалева Ольга Святославовна",
    "phone": "79610000291"
  },
  {
    "address": "Россия, Республика Калмыкия, Элиста, 6-й микрорайон, 27 ",
    "longitude": "44.287303",
    "latitude": "46.301324",
    "name": "Сахарова Агния Эминовна",
    "phone": "79610000297"
  },
  {
    "address": "Россия, Республика Калмыкия, Элиста, 2-й микрорайон, 23 ",
    "longitude": "44.303374",
    "latitude": "46.308558",
    "name": "Федорова Эмилия Ивановна",
    "phone": "79610000300"
  },
  {
    "address": "Россия, Республика Калмыкия, Элиста, 4-й микрорайон, 23, подъезд 1 ",
    "longitude": "44.278149",
    "latitude": "46.322202",
    "name": "Денисова Диана Платоновна",
    "phone": "79610000304"
  },
  {
    "address": "Россия, Республика Калмыкия, Элиста, улица Герасименко, 57А, подъезд 1 ",
    "longitude": "44.280754",
    "latitude": "46.317889",
    "name": "Рудакова Валерия Александровна",
    "phone": "79610000305"
  },
  {
    "address": "Россия, Республика Калмыкия, Элиста, 10-й микрорайон, 16, подъезд 2 ",
    "longitude": "44.265887",
    "latitude": "46.326204",
    "name": "Маркина Амалия Макаровна",
    "phone": "79610000306"
  },
  {
    "address": "Россия, Республика Калмыкия, Элиста, улица Губаревича, 16 ",
    "longitude": "44.270909",
    "latitude": "46.310432",
    "name": "Савельев Кирилл Иванович",
    "phone": "79610000307"
  },
  {
    "address": "Россия, Республика Калмыкия, Элиста, улица Губаревича, 4 ",
    "longitude": "44.272067",
    "latitude": "46.307176",
    "name": "Миронов Сергей Максимович",
    "phone": "79610000308"
  },
  {
    "address": "Россия, Республика Калмыкия, Элиста, 6-й микрорайон, 27, подъезд 5 ",
    "longitude": "44.287186",
    "latitude": "46.301486",
    "name": "Демидова Диана Георгиевна",
    "phone": "79610000310"
  },
  {
    "address": "Россия, Республика Калмыкия, Элиста, улица Островского, 6 ",
    "longitude": "44.263372",
    "latitude": "46.296455",
    "name": "Новиков Арсений Матвеевич",
    "phone": "79610000312"
  },
  {
    "address": "Россия, Республика Калмыкия, Элиста, 4-й микрорайон, 17, подъезд 4 ",
    "longitude": "44.276289",
    "latitude": "46.319657",
    "name": "Дмитриев Иван Михайлович",
    "phone": "79610000317"
  },
  {
    "address": "Россия, Республика Калмыкия, Элиста, улица Мира ",
    "longitude": "44.293843",
    "latitude": "46.308888",
    "name": "Новиков Арсений Матвеевич",
    "phone": "79610000318"
  },
  {
    "address": "Россия, Республика Калмыкия, Элиста, 4-й микрорайон, 14 ",
    "longitude": "44.275265",
    "latitude": "46.319999",
    "name": "Корнеева Агата Давидовна",
    "phone": "79610000320"
  },
  {
    "address": "Россия, Республика Калмыкия, Элиста, 8-й микрорайон, 5 ",
    "longitude": "44.305584",
    "latitude": "46.305315",
    "name": "Виноградова Виктория Артёмовна",
    "phone": "79610000322"
  },
  {
    "address": "Россия, Республика Калмыкия, Элиста, Кирпичный переулок ",
    "longitude": "44.281095",
    "latitude": "46.315144",
    "name": "Кудрявцева Мария Ярославовна",
    "phone": "79610000324"
  },
  {
    "address": "Россия, Республика Калмыкия, Элиста, улица Г.О. Рокчинского ",
    "longitude": "44.275158",
    "latitude": "46.325395",
    "name": "Андреев Данила Эминович",
    "phone": "79610000328"
  },
  {
    "address": "Россия, Республика Калмыкия, Элиста, въезд Хахлыновой, 1 ",
    "longitude": "44.279622",
    "latitude": "46.299039",
    "name": "Васильева Ясмина Даниловна",
    "phone": "79610000329"
  },
  {
    "address": "Россия, Республика Калмыкия, Элиста, улица Герасименко, 5Б ",
    "longitude": "44.280943",
    "latitude": "46.312804",
    "name": "Ефимова Виктория Вадимовна",
    "phone": "79610000330"
  },
  {
    "address": "Россия, Республика Калмыкия, Элиста, 4-й микрорайон, 45, подъезд 4 ",
    "longitude": "44.274089",
    "latitude": "46.324598",
    "name": "Сидоров Алексей Андреевич",
    "phone": "79610000332"
  },
  {
    "address": "Россия, Республика Калмыкия, Элиста, улица А.С. Пушкина, 52 ",
    "longitude": "44.266309",
    "latitude": "46.31637",
    "name": "Кондрашова Мария Степановна",
    "phone": "79610000335"
  },
  {
    "address": "Россия, Республика Калмыкия, Элиста, 3-й микрорайон, 4 ",
    "longitude": "44.276739",
    "latitude": "46.318393",
    "name": "Беляева Анна Марковна",
    "phone": "79610000336"
  },
  {
    "address": "Россия, Республика Калмыкия, Элиста, 4-й микрорайон, 11 ",
    "longitude": "44.272508",
    "latitude": "46.319389",
    "name": "Молчанова Виктория Михайловна",
    "phone": "79610000339"
  },
  {
    "address": "Россия, Республика Калмыкия, Элиста, 9-й микрорайон, 25, подъезд 6 ",
    "longitude": "44.312842",
    "latitude": "46.30148",
    "name": "Жукова Татьяна Кирилловна",
    "phone": "79610000340"
  },
  {
    "address": "Россия, Республика Калмыкия, Элиста, 4-й микрорайон, 43, подъезд 6 ",
    "longitude": "44.275391",
    "latitude": "46.325196",
    "name": "Соловьев Тимофей Тимурович",
    "phone": "79610000342"
  },
  {
    "address": "Россия, Республика Калмыкия, Элиста, 1-й микрорайон, 15, подъезд 4 ",
    "longitude": "44.254604",
    "latitude": "46.314036",
    "name": "Назаров Даниил Иванович",
    "phone": "79610000345"
  },
  {
    "address": "Россия, Республика Калмыкия, Элиста, 4-й микрорайон, 43 ",
    "longitude": "44.275706",
    "latitude": "46.325053",
    "name": "Алексеева Юлия Тимуровна",
    "phone": "79610000347"
  },
  {
    "address": "Россия, Республика Калмыкия, Элиста, улица Г.О. Рокчинского, 19, подъезд 5 ",
    "longitude": "44.267729",
    "latitude": "46.322501",
    "name": "Горохов Александр Артёмович",
    "phone": "79610000348"
  },
  {
    "address": "Россия, Республика Калмыкия, Элиста, 9-й микрорайон, 3 ",
    "longitude": "44.304865",
    "latitude": "46.303727",
    "name": "Мельников Алексей Владимирович",
    "phone": "79610000351"
  },
  {
    "address": "Россия, Республика Калмыкия, Элиста, улица Г.О. Рокчинского, 45, подъезд 4 ",
    "longitude": "44.268789",
    "latitude": "46.323055",
    "name": "Давыдова Марьяна Всеволодовна",
    "phone": "79610000352"
  },
  {
    "address": "Россия, Республика Калмыкия, Элиста, улица Лермонтова, 17 ",
    "longitude": "44.276011",
    "latitude": "46.304082",
    "name": "Тимофеева Надежда Глебовна",
    "phone": "79610000353"
  },
  {
    "address": "Россия, Республика Калмыкия, Элиста, 8-й микрорайон, 12, подъезд 2 ",
    "longitude": "44.307245",
    "latitude": "46.306354",
    "name": "Рыбакова София Семёновна",
    "phone": "79610000360"
  },
  {
    "address": "Россия, Республика Калмыкия, Элиста, 8-й микрорайон, 64, подъезд 1 ",
    "longitude": "44.309788",
    "latitude": "46.303335",
    "name": "Фролов Денис Эмирович",
    "phone": "79610000362"
  },
  {
    "address": "Россия, Республика Калмыкия, Элиста, 10-й микрорайон, 54, подъезд 4 ",
    "longitude": "44.266875",
    "latitude": "46.32776",
    "name": "Гордеев Пётр Макарович",
    "phone": "79610000367"
  },
  {
    "address": "Россия, Республика Калмыкия, Элиста, Спортивная улица, 6 ",
    "longitude": "44.235281",
    "latitude": "46.300328",
    "name": "Панков Алексей Ильич",
    "phone": "79610000368"
  },
  {
    "address": "Россия, Республика Калмыкия, Элиста, 6-й микрорайон, 7 ",
    "longitude": "44.293861",
    "latitude": "46.303459",
    "name": "Смирнова Василиса Никитична",
    "phone": "79610000369"
  },
  {
    "address": "Россия, Республика Калмыкия, Элиста, улица Аккочкарова, 27 ",
    "longitude": "44.300194",
    "latitude": "46.296368",
    "name": "Трофимова София Никитична",
    "phone": "79610000370"
  },
  {
    "address": "Россия, Республика Калмыкия, Элиста, 6-й микрорайон, 14, подъезд 1 ",
    "longitude": "44.291642",
    "latitude": "46.302999",
    "name": "Филиппов Кирилл Максимович",
    "phone": "79610000372"
  },
  {
    "address": "Россия, Республика Калмыкия, Элиста, 2-й микрорайон, 11 ",
    "longitude": "44.30385",
    "latitude": "46.305396",
    "name": "Фролов Никита Андреевич",
    "phone": "79610000373"
  },
  {
    "address": "Россия, Республика Калмыкия, Элиста, 6-й микрорайон, 1 ",
    "longitude": "44.29678",
    "latitude": "46.304842",
    "name": "Чернов Михаил Григорьевич",
    "phone": "79610000374"
  },
  {
    "address": "Россия, Республика Калмыкия, Элиста, 2-й микрорайон, 25 ",
    "longitude": "44.30544",
    "latitude": "46.308347",
    "name": "Тихонова Ксения Платоновна",
    "phone": "79610000376"
  },
  {
    "address": "Россия, Республика Калмыкия, Элиста, 6-й микрорайон, 13, подъезд 4 ",
    "longitude": "44.291426",
    "latitude": "46.302625",
    "name": "Соколов Тимофей Максимович",
    "phone": "79610000384"
  },
  {
    "address": "Россия, Республика Калмыкия, Элиста, Ханты-Мансийская улица, 12 ",
    "longitude": "44.275212",
    "latitude": "46.328619",
    "name": "Александрова Елизавета Львовна",
    "phone": "79610000386"
  },
  {
    "address": "Россия, Республика Калмыкия, Элиста, 2-й микрорайон, 15 ",
    "longitude": "44.303041",
    "latitude": "46.309473",
    "name": "Ильинский Михаил Максимович",
    "phone": "79610000387"
  },
  {
    "address": "Россия, Республика Калмыкия, Элиста, Ипподромная улица, 91, подъезд 1 ",
    "longitude": "44.231401",
    "latitude": "46.324094",
    "name": "Макаров Михаил Егорович",
    "phone": "79610000390"
  },
  {
    "address": "Россия, Республика Калмыкия, Элиста, 8-й микрорайон, 58 ",
    "longitude": "44.310497",
    "latitude": "46.303105",
    "name": "Гусев Фёдор Никитич",
    "phone": "79610000391"
  },
  {
    "address": "Россия, Республика Калмыкия, Элиста, 8-й микрорайон, 8Б ",
    "longitude": "44.311045",
    "latitude": "46.307164",
    "name": "Волкова Виктория Егоровна",
    "phone": "79610000392"
  },
  {
    "address": "Россия, Республика Калмыкия, Элиста, улица 8 Марта, 26 ",
    "longitude": "44.240546",
    "latitude": "46.318356",
    "name": "Осипова Амира Ивановна",
    "phone": "79610000399"
  },
  {
    "address": "Россия, Республика Калмыкия, Элиста, 6-й микрорайон, 8, подъезд 2 ",
    "longitude": "44.294507",
    "latitude": "46.303322",
    "name": "Яковлев Семён Львович",
    "phone": "79610000400"
  },
  {
    "address": "Россия, Республика Калмыкия, Элиста, 2-й микрорайон, 30, подъезд 6 ",
    "longitude": "44.303796",
    "latitude": "46.306964",
    "name": "Тихонова Дарья Робертовна",
    "phone": "79610000404"
  },
  {
    "address": "Россия, Республика Калмыкия, Элиста, 2-й микрорайон, 13, подъезд 2 ",
    "longitude": "44.300418",
    "latitude": "46.305794",
    "name": "Горбунов Иван Ильич",
    "phone": "79610000406"
  },
  {
    "address": "Россия, Республика Калмыкия, Элиста, 1-й микрорайон, 14 ",
    "longitude": "44.254272",
    "latitude": "46.314329",
    "name": "Денисова Диана Платоновна",
    "phone": "79610000409"
  },
  {
    "address": "Россия, Республика Калмыкия, Элиста, 5-й микрорайон, 2 ",
    "longitude": "44.283404",
    "latitude": "46.324051",
    "name": "Маркина Амалия Макаровна",
    "phone": "79610000411"
  },
  {
    "address": "Россия, Республика Калмыкия, Элиста, 3-й микрорайон, 6, подъезд 2 ",
    "longitude": "44.275355",
    "latitude": "46.318904",
    "name": "Миронов Сергей Максимович",
    "phone": "79610000413"
  },
  {
    "address": "Россия, Республика Калмыкия, Элиста, улица Г.О. Рокчинского, 45, подъезд 3 ",
    "longitude": "44.268977",
    "latitude": "46.323055",
    "name": "Лапшин Артемий Макарович",
    "phone": "79610000414"
  },
  {
    "address": "Россия, Республика Калмыкия, Элиста, Спортивная улица ",
    "longitude": "44.242207",
    "latitude": "46.299985",
    "name": "Ширяева Ольга Алексеевна",
    "phone": "79610000418"
  },
  {
    "address": "Россия, Республика Калмыкия, Элиста, Республиканская улица, 24 ",
    "longitude": "44.262366",
    "latitude": "46.309548",
    "name": "Корнеева Агата Давидовна",
    "phone": "79610000419"
  },
  {
    "address": "Россия, Республика Калмыкия, Элиста, Республиканская улица, 47 ",
    "longitude": "44.261692",
    "latitude": "46.309772",
    "name": "Лапшин Артемий Макарович",
    "phone": "79610000420"
  },
  {
    "address": "Россия, Республика Калмыкия, Элиста, улица Лермонтова, 32 ",
    "longitude": "44.277296",
    "latitude": "46.302333",
    "name": "Демидова Диана Георгиевна",
    "phone": "79610000421"
  },
  {
    "address": "Россия, Республика Калмыкия, Элиста, улица Б. Хеечиева, 27 ",
    "longitude": "44.272247",
    "latitude": "46.313843",
    "name": "Дмитриев Иван Михайлович",
    "phone": "79610000422"
  },
  {
    "address": "Россия, Республика Калмыкия, Элиста, улица Манцын Кец, 73 ",
    "longitude": "44.244857",
    "latitude": "46.292551",
    "name": "Новиков Арсений Матвеевич",
    "phone": "79610000423"
  },
  {
    "address": "Россия, Республика Калмыкия, Элиста, 4-й микрорайон, 5 ",
    "longitude": "44.27337",
    "latitude": "46.32204",
    "name": "Корнеева Агата Давидовна",
    "phone": "79610000425"
  },
  {
    "address": "Россия, Республика Калмыкия, Элиста, 1-й микрорайон, 53, подъезд 1 ",
    "longitude": "44.25791",
    "latitude": "46.320609",
    "name": "Виноградова Виктория Артёмовна",
    "phone": "79610000427"
  },
  {
    "address": "Россия, Республика Калмыкия, Элиста, улица Автомобилистов, 36 ",
    "longitude": "44.237042",
    "latitude": "46.301112",
    "name": "Коновалова Дарья Артёмовна",
    "phone": "79610000428"
  },
  {
    "address": "Россия, Республика Калмыкия, Элиста, 9-й микрорайон, 14, подъезд 2 ",
    "longitude": "44.303661",
    "latitude": "46.301666",
    "name": "Шульгина Диана Евгеньевна",
    "phone": "79610000431"
  },
  {
    "address": "Россия, Республика Калмыкия, Элиста, 9-й микрорайон, 14, подъезд 3 ",
    "longitude": "44.303329",
    "latitude": "46.30176",
    "name": "Борисова София Адамовна",
    "phone": "79610000432"
  },
  {
    "address": "Россия, Республика Калмыкия, Элиста, улица Геодезистов, 24 ",
    "longitude": "44.252502",
    "latitude": "46.324542",
    "name": "Ефимова Виктория Вадимовна",
    "phone": "79610000435"
  },
  {
    "address": "Россия, Республика Калмыкия, Элиста, улица А.С. Пушкина, 38 ",
    "longitude": "44.268735",
    "latitude": "46.31144",
    "name": "Сидоров Алексей Андреевич",
    "phone": "79610000437"
  },
  {
    "address": "Россия, Республика Калмыкия, Элиста, 6-й микрорайон, 6, подъезд 1 ",
    "longitude": "44.294777",
    "latitude": "46.303808",
    "name": "Семенова Дарья Арсентьевна",
    "phone": "79610000439"
  },
  {
    "address": "Россия, Республика Калмыкия, Элиста, улица А.С. Пушкина, 54 ",
    "longitude": "44.267064",
    "latitude": "46.316949",
    "name": "Беляева Анна Марковна",
    "phone": "79610000441"
  },
  {
    "address": "Россия, Республика Калмыкия, Элиста, 6-й микрорайон, 6 ",
    "longitude": "44.294355",
    "latitude": "46.304026",
    "name": "Нестеров Артём Константинович",
    "phone": "79610000443"
  },
  {
    "address": "Россия, Республика Калмыкия, Элиста, 4-й микрорайон, 27, подъезд 4 ",
    "longitude": "44.277619",
    "latitude": "46.322613",
    "name": "Молчанова Виктория Михайловна",
    "phone": "79610000444"
  },
  {
    "address": "Россия, Республика Калмыкия, Элиста, Шахматная улица, 39 ",
    "longitude": "44.255314",
    "latitude": "46.323472",
    "name": "Кузнецов Макар Михайлович",
    "phone": "79610000448"
  },
  {
    "address": "Россия, Республика Калмыкия, Элиста, Спортивная улица, 34 ",
    "longitude": "44.239809",
    "latitude": "46.299973",
    "name": "Алексеева Юлия Тимуровна",
    "phone": "79610000452"
  },
  {
    "address": "Россия, Республика Калмыкия, Элиста, улица Джиргал, 58 ",
    "longitude": "44.246888",
    "latitude": "46.292526",
    "name": "Горохов Александр Артёмович",
    "phone": "79610000453"
  },
  {
    "address": "Россия, Республика Калмыкия, Элиста, 8-й микрорайон, 61 ",
    "longitude": "44.312492",
    "latitude": "46.304263",
    "name": "Давыдова Марьяна Всеволодовна",
    "phone": "79610000457"
  },
  {
    "address": "Россия, Республика Калмыкия, Элиста, 4-й микрорайон, 46 ",
    "longitude": "44.273235",
    "latitude": "46.324306",
    "name": "Беликов Даниил Арсентьевич",
    "phone": "79610000459"
  },
  {
    "address": "Россия, Республика Калмыкия, Элиста, улица Разина ",
    "longitude": "44.274753",
    "latitude": "46.293466",
    "name": "Богданов Адам Макарович",
    "phone": "79610000460"
  },
  {
    "address": "Россия, Республика Калмыкия, Элиста, 2-й микрорайон, 31, подъезд 3 ",
    "longitude": "44.303841",
    "latitude": "46.306273",
    "name": "Быкова Надежда Марковна",
    "phone": "79610000462"
  },
  {
    "address": "Россия, Республика Калмыкия, Элиста, 1-й микрорайон, 16, подъезд 4 ",
    "longitude": "44.255161",
    "latitude": "46.313918",
    "name": "Овчинников Даниил Александрович",
    "phone": "79610000464"
  },
  {
    "address": "Россия, Республика Калмыкия, Элиста, улица Балакаева, 10 ",
    "longitude": "44.260829",
    "latitude": "46.310214",
    "name": "Быкова Ева Алиевна",
    "phone": "79610000471"
  },
  {
    "address": "Россия, Республика Калмыкия, Элиста, улица Чапаева, 55 ",
    "longitude": "44.276119",
    "latitude": "46.31637",
    "name": "Тимофеева Майя Святославовна",
    "phone": "79610000476"
  },
  {
    "address": "Россия, Республика Калмыкия, Элиста, улица Братьев Алехиных, 10 ",
    "longitude": "44.262635",
    "latitude": "46.310556",
    "name": "Фролов Никита Андреевич",
    "phone": "79610000478"
  },
  {
    "address": "Россия, Республика Калмыкия, Элиста, улица Чкалова, 25 ",
    "longitude": "44.276245",
    "latitude": "46.310127",
    "name": "Чернов Михаил Григорьевич",
    "phone": "79610000479"
  },
  {
    "address": "Россия, Республика Калмыкия, Элиста, 3-й микрорайон, 23 ",
    "longitude": "44.269534",
    "latitude": "46.316265",
    "name": "Тихонова Ксения Платоновна",
    "phone": "79610000481"
  },
  {
    "address": "Россия, Республика Калмыкия, Элиста, улица Илишкина, 3 ",
    "longitude": "44.267145",
    "latitude": "46.305626",
    "name": "Успенский Анатолий Дмитриевич",
    "phone": "79610000482"
  },
  {
    "address": "Россия, Республика Калмыкия, Элиста,  Сити-Чесс ",
    "longitude": "44.297211",
    "latitude": "46.296729",
    "name": "Захарова Мирослава Константиновна",
    "phone": "79610000483"
  },
  {
    "address": "Россия, Республика Калмыкия, Элиста, 10-й микрорайон, 3В ",
    "longitude": "44.271394",
    "latitude": "46.326677",
    "name": "Николаева Ева Михайловна",
    "phone": "79610000485"
  },
  {
    "address": "Россия, Республика Калмыкия, Элиста, 2-й микрорайон, 21, подъезд 3 ",
    "longitude": "44.301254",
    "latitude": "46.308782",
    "name": "Смирнова Таисия Данииловна",
    "phone": "79610000486"
  },
  {
    "address": "Россия, Республика Калмыкия, Элиста, Аршанский  ",
    "longitude": "44.240159",
    "latitude": "46.296648",
    "name": "Соколов Тимофей Максимович",
    "phone": "79610000489"
  },
  {
    "address": "Россия, Республика Калмыкия, Элиста, 4-й микрорайон, 16 ",
    "longitude": "44.276604",
    "latitude": "46.320074",
    "name": "Скворцова Алина Кирилловна",
    "phone": "79610000493"
  },
  {
    "address": "Россия, Республика Калмыкия, Элиста, улица Разина, 3 ",
    "longitude": "44.274771",
    "latitude": "46.293759",
    "name": "Маркова Елизавета Михайловна",
    "phone": "79610000494"
  },
  {
    "address": "Россия, Республика Калмыкия, Элиста, 1-й микрорайон, 4 ",
    "longitude": "44.2557",
    "latitude": "46.317142",
    "name": "Поздняков Максим Захарович",
    "phone": "79610000500"
  },
  {
    "address": "Россия, Республика Калмыкия, Элиста, улица Г.О. Рокчинского, 45 ",
    "longitude": "44.268717",
    "latitude": "46.322986",
    "name": "Иванов Даниэль Никитич",
    "phone": "79610000502"
  },
  {
    "address": "Россия, Республика Калмыкия, Элиста, 6-й микрорайон, 3 ",
    "longitude": "44.295738",
    "latitude": "46.304935",
    "name": "Осипова Амира Ивановна",
    "phone": "79610000504"
  },
  {
    "address": "Россия, Республика Калмыкия, Элиста, улица Тачиева, 19 ",
    "longitude": "44.286351",
    "latitude": "46.307948",
    "name": "Горбунов Иван Ильич",
    "phone": "79610000511"
  },
  {
    "address": "Россия, Республика Калмыкия, Элиста, 2-й микрорайон, 32, подъезд 6 ",
    "longitude": "44.302763",
    "latitude": "46.306087",
    "name": "Щербаков Кирилл Максимович",
    "phone": "79610000512"
  },
  {
    "address": "Россия, Республика Калмыкия, Элиста, 2-й микрорайон, 19, подъезд 5 ",
    "longitude": "44.301074",
    "latitude": "46.309641",
    "name": "Беляева Полина Тимофеевна",
    "phone": "79610000513"
  },
  {
    "address": "Россия, Республика Калмыкия, Элиста, 6-й микрорайон, 4 ",
    "longitude": "44.295325",
    "latitude": "46.303827",
    "name": "Денисова Диана Платоновна",
    "phone": "79610000514"
  },
  {
    "address": "Россия, Республика Калмыкия, Элиста, 6-й микрорайон, 20 ",
    "longitude": "44.288686",
    "latitude": "46.301081",
    "name": "Рудакова Валерия Александровна",
    "phone": "79610000515"
  },
  {
    "address": "Россия, Республика Калмыкия, Элиста, улица 8 Марта, 30 ",
    "longitude": "44.237186",
    "latitude": "46.319221",
    "name": "Савельев Кирилл Иванович",
    "phone": "79610000517"
  },
  {
    "address": "Россия, Республика Калмыкия, Элиста, 1-й микрорайон, 7 ",
    "longitude": "44.256212",
    "latitude": "46.315717",
    "name": "Миронов Сергей Максимович",
    "phone": "79610000518"
  },
  {
    "address": "Россия, Республика Калмыкия, Элиста, 4-й микрорайон, 16, подъезд 2 ",
    "longitude": "44.276757",
    "latitude": "46.320136",
    "name": "Лапшин Артемий Макарович",
    "phone": "79610000519"
  },
  {
    "address": "Россия, Республика Калмыкия, Элиста, улица Б. Хеечиева, 31 ",
    "longitude": "44.272678",
    "latitude": "46.313787",
    "name": "Демидова Диана Георгиевна",
    "phone": "79610000520"
  },
  {
    "address": "Россия, Республика Калмыкия, Элиста, 9-й микрорайон, 65 ",
    "longitude": "44.305772",
    "latitude": "46.29846",
    "name": "Корнеева Агата Давидовна",
    "phone": "79610000524"
  },
  {
    "address": "Россия, Республика Калмыкия, Элиста, улица Сарта, 6 ",
    "longitude": "44.247705",
    "latitude": "46.324281",
    "name": "Попов Максим Тимофеевич",
    "phone": "79610000531"
  },
  {
    "address": "Россия, Республика Калмыкия, Элиста, 1-й Геологический переулок ",
    "longitude": "44.293492",
    "latitude": "46.315443",
    "name": "Виноградова Виктория Артёмовна",
    "phone": "79610000532"
  },
  {
    "address": "Россия, Республика Калмыкия, Элиста, Профсоюзная улица ",
    "longitude": "44.223576",
    "latitude": "46.303453",
    "name": "Коновалова Дарья Артёмовна",
    "phone": "79610000533"
  },
  {
    "address": "Россия, Республика Калмыкия, Элиста, 2-й микрорайон, 38, подъезд 4 ",
    "longitude": "44.296124",
    "latitude": "46.307425",
    "name": "Волков Арсений Тимофеевич",
    "phone": "79610000535"
  },
  {
    "address": "Россия, Республика Калмыкия, Элиста, 9-й микрорайон, 21, подъезд 5 ",
    "longitude": "44.309662",
    "latitude": "46.302445",
    "name": "Андреев Данила Эминович",
    "phone": "79610000538"
  },
  {
    "address": "Россия, Республика Калмыкия, Элиста, 9-й микрорайон, 28, подъезд 3 ",
    "longitude": "44.30835",
    "latitude": "46.30166",
    "name": "Ефимова Виктория Вадимовна",
    "phone": "79610000540"
  },
  {
    "address": "Россия, Республика Калмыкия, Элиста, 4-й микрорайон, 48, подъезд 1 ",
    "longitude": "44.271753",
    "latitude": "46.323316",
    "name": "Сидоров Алексей Андреевич",
    "phone": "79610000542"
  },
  {
    "address": "Россия, Республика Калмыкия, Элиста, улица Г.О. Рокчинского, 45, подъезд 6 ",
    "longitude": "44.26842",
    "latitude": "46.323055",
    "name": "Беляева Анна Марковна",
    "phone": "79610000546"
  },
  {
    "address": "Россия, Республика Калмыкия, Элиста, 3-й микрорайон, 8 ",
    "longitude": "44.274313",
    "latitude": "46.318686",
    "name": "Нестеров Артём Константинович",
    "phone": "79610000548"
  },
  {
    "address": "Россия, Республика Калмыкия, Элиста, 4-й микрорайон, 6 ",
    "longitude": "44.273451",
    "latitude": "46.321443",
    "name": "Молчанова Виктория Михайловна",
    "phone": "79610000549"
  },
  {
    "address": "Россия, Республика Калмыкия, Элиста, улица Чкалова, 14, подъезд 4 ",
    "longitude": "44.277951",
    "latitude": "46.306659",
    "name": "Дроздов Максим Тимофеевич",
    "phone": "79610000554"
  },
  {
    "address": "Россия, Республика Калмыкия, Элиста, улица Балдашинова, 6 ",
    "longitude": "44.241525",
    "latitude": "46.313669",
    "name": "Назаров Даниил Иванович",
    "phone": "79610000555"
  },
  {
    "address": "Россия, Республика Калмыкия, Элиста, 2-й микрорайон, 21 ",
    "longitude": "44.301137",
    "latitude": "46.30872",
    "name": "Колпакова Анна Алексеевна",
    "phone": "79610000556"
  },
  {
    "address": "Россия, Республика Калмыкия, Элиста, 3-й микрорайон, 17 ",
    "longitude": "44.269184",
    "latitude": "46.318368",
    "name": "Алексеева Юлия Тимуровна",
    "phone": "79610000557"
  },
  {
    "address": "Россия, Республика Калмыкия, Элиста, 3-й микрорайон, 10, подъезд 2 ",
    "longitude": "44.273604",
    "latitude": "46.318094",
    "name": "Горохов Александр Артёмович",
    "phone": "79610000558"
  },
  {
    "address": "Россия, Республика Калмыкия, Элиста, 8-й микрорайон, 63 ",
    "longitude": "44.311656",
    "latitude": "46.302768",
    "name": "Петров Даниэль Павлович",
    "phone": "79610000559"
  },
  {
    "address": "Россия, Республика Калмыкия, Элиста, Лесная улица, 17 ",
    "longitude": "44.252646",
    "latitude": "46.296436",
    "name": "Петухов Артур Даниилович",
    "phone": "79610000560"
  },
  {
    "address": "Россия, Республика Калмыкия, Элиста, 9-й микрорайон, 7, подъезд 1 ",
    "longitude": "44.304092",
    "latitude": "46.302488",
    "name": "Давыдова Марьяна Всеволодовна",
    "phone": "79610000562"
  },
  {
    "address": "Россия, Республика Калмыкия, Элиста, Республиканская улица, 8 ",
    "longitude": "44.268537",
    "latitude": "46.310619",
    "name": "Беликов Даниил Арсентьевич",
    "phone": "79610000564"
  },
  {
    "address": "Россия, Республика Калмыкия, Элиста, 1-й микрорайон, 23 ",
    "longitude": "44.258817",
    "latitude": "46.315536",
    "name": "Быкова Надежда Марковна",
    "phone": "79610000567"
  },
  {
    "address": "Россия, Республика Калмыкия, Элиста, 6-й микрорайон, 11А ",
    "longitude": "44.293151",
    "latitude": "46.302345",
    "name": "Кононов Николай Иванович",
    "phone": "79610000568"
  },
  {
    "address": "Россия, Республика Калмыкия, Элиста, 1-й микрорайон, 25 ",
    "longitude": "44.259635",
    "latitude": "46.3167",
    "name": "Матвеева Владислава Артёмовна",
    "phone": "79610000571"
  },
  {
    "address": "Россия, Республика Калмыкия, Элиста,  Чкалова, 10 ",
    "longitude": "44.278715",
    "latitude": "46.306087",
    "name": "Розанова Мария Георгиевна",
    "phone": "79610000573"
  },
  {
    "address": "Россия, Республика Калмыкия, Элиста, улица 8 Марта, 28А, подъезд 2 ",
    "longitude": "44.238102",
    "latitude": "46.318841",
    "name": "Худяков Иван Алексеевич",
    "phone": "79610000575"
  },
  {
    "address": "Россия, Республика Калмыкия, Элиста, 3-й микрорайон, 6А, подъезд 1 ",
    "longitude": "44.27549",
    "latitude": "46.318574",
    "name": "Гордеев Пётр Макарович",
    "phone": "79610000577"
  },
  {
    "address": "Россия, Республика Калмыкия, Элиста, улица Аккочкарова, 31 ",
    "longitude": "44.30023",
    "latitude": "46.296704",
    "name": "Смирнова Василиса Никитична",
    "phone": "79610000579"
  },
  {
    "address": "Россия, Республика Калмыкия, Элиста, 8-й микрорайон, 35А ",
    "longitude": "44.315187",
    "latitude": "46.304568",
    "name": "Трофимова София Никитична",
    "phone": "79610000580"
  },
  {
    "address": "Россия, Республика Калмыкия, Элиста, улица Балдашинова, 12 ",
    "longitude": "44.241776",
    "latitude": "46.314192",
    "name": "Тимофеева Майя Святославовна",
    "phone": "79610000581"
  },
  {
    "address": "Россия, Республика Калмыкия, Элиста, 9-й микрорайон, 48 ",
    "longitude": "44.308027",
    "latitude": "46.301118",
    "name": "Филиппов Кирилл Максимович",
    "phone": "79610000582"
  },
  {
    "address": "Россия, Республика Калмыкия, Элиста, Ханатинская улица, 31 ",
    "longitude": "44.241129",
    "latitude": "46.329085",
    "name": "Павлова Яна Евгеньевна",
    "phone": "79610000585"
  },
  {
    "address": "Россия, Республика Калмыкия, Элиста, 4-й микрорайон, 36, подъезд 1 ",
    "longitude": "44.27805",
    "latitude": "46.32471",
    "name": "Тихонова Ксения Платоновна",
    "phone": "79610000586"
  },
  {
    "address": "Россия, Республика Калмыкия, Элиста, 5-й микрорайон, 8 ",
    "longitude": "44.284464",
    "latitude": "46.324356",
    "name": "Макарова Полина Владиславовна",
    "phone": "79610000589"
  },
  {
    "address": "Россия, Республика Калмыкия, Элиста, 8-й микрорайон, 9, подъезд 2 ",
    "longitude": "44.308503",
    "latitude": "46.307568",
    "name": "Смирнова Таисия Данииловна",
    "phone": "79610000591"
  },
  {
    "address": "Россия, Республика Калмыкия, Элиста, 8-й микрорайон, 53, подъезд 2 ",
    "longitude": "44.316238",
    "latitude": "46.303086",
    "name": "Громов Алексей Матвеевич",
    "phone": "79610000592"
  },
  {
    "address": "Россия, Республика Калмыкия, Элиста, 4-й микрорайон, 34, подъезд 4 ",
    "longitude": "44.279173",
    "latitude": "46.324605",
    "name": "Ильинский Михаил Максимович",
    "phone": "79610000597"
  },
  {
    "address": "Россия, Республика Калмыкия, Элиста, 8-й микрорайон, 17, подъезд 2 ",
    "longitude": "44.307389",
    "latitude": "46.304113",
    "name": "Гусев Фёдор Никитич",
    "phone": "79610000601"
  },
  {
    "address": "Россия, Республика Калмыкия, Элиста, Партизанская улица, 37 ",
    "longitude": "44.251469",
    "latitude": "46.313868",
    "name": "Родионова Амина Мироновна",
    "phone": "79610000604"
  },
  {
    "address": "Россия, Республика Калмыкия, Элиста, Ипподромная улица, 99, подъезд 1 ",
    "longitude": "44.232416",
    "latitude": "46.323509",
    "name": "Поздняков Максим Захарович",
    "phone": "79610000605"
  },
  {
    "address": "Россия, Республика Калмыкия, Элиста, 6-й микрорайон, 13, подъезд 3 ",
    "longitude": "44.291552",
    "latitude": "46.302544",
    "name": "Ковалева Ольга Святославовна",
    "phone": "79610000606"
  },
  {
    "address": "Россия, Республика Калмыкия, Элиста, улица Г. Молоканова, 45 ",
    "longitude": "44.277296",
    "latitude": "46.313993",
    "name": "Иванов Даниэль Никитич",
    "phone": "79610000607"
  },
  {
    "address": "Россия, Республика Калмыкия, Элиста, 4-й микрорайон, 12 ",
    "longitude": "44.273837",
    "latitude": "46.319931",
    "name": "Осипова Амира Ивановна",
    "phone": "79610000609"
  },
  {
    "address": "Россия, Республика Калмыкия, Элиста, улица Каляева ",
    "longitude": "44.264926",
    "latitude": "46.313376",
    "name": "Яковлев Семён Львович",
    "phone": "79610000610"
  },
  {
    "address": "Россия, Республика Калмыкия, Элиста, 2-й микрорайон, 13 ",
    "longitude": "44.30031",
    "latitude": "46.305757",
    "name": "Емельянов Данила Леонидович",
    "phone": "79610000611"
  },
  {
    "address": "Россия, Республика Калмыкия, Элиста, Алтайская улица, 8 ",
    "longitude": "44.245801",
    "latitude": "46.294562",
    "name": "Суворов Дмитрий Иванович",
    "phone": "79610000613"
  },
  {
    "address": "Россия, Республика Калмыкия, Элиста, 2-й микрорайон, 36, подъезд 1 ",
    "longitude": "44.296358",
    "latitude": "46.306591",
    "name": "Беляева Полина Тимофеевна",
    "phone": "79610000618"
  },
  {
    "address": "Россия, Республика Калмыкия, Элиста, 8-й микрорайон, 13 ",
    "longitude": "44.308853",
    "latitude": "46.30608",
    "name": "Савельев Кирилл Иванович",
    "phone": "79610000622"
  },
  {
    "address": "Россия, Республика Калмыкия, Элиста, улица Балакаева, 10, подъезд 1 ",
    "longitude": "44.260731",
    "latitude": "46.310146",
    "name": "Миронов Сергей Максимович",
    "phone": "79610000623"
  },
  {
    "address": "Россия, Республика Калмыкия, Элиста, 4-й микрорайон, 11, подъезд 2 ",
    "longitude": "44.272615",
    "latitude": "46.319451",
    "name": "Лапшин Артемий Макарович",
    "phone": "79610000624"
  },
  {
    "address": "Россия, Республика Калмыкия, Элиста, 9-й микрорайон, 7 ",
    "longitude": "44.304074",
    "latitude": "46.302252",
    "name": "Демидова Диана Георгиевна",
    "phone": "79610000625"
  },
  {
    "address": "Россия, Республика Калмыкия, Элиста, 4-й микрорайон, 35, подъезд 2 ",
    "longitude": "44.278751",
    "latitude": "46.324959",
    "name": "Дмитриев Иван Михайлович",
    "phone": "79610000626"
  },
  {
    "address": "Россия, Республика Калмыкия, Элиста, 4-й микрорайон, 46, подъезд 4 ",
    "longitude": "44.273523",
    "latitude": "46.324287",
    "name": "Корнеева Агата Давидовна",
    "phone": "79610000629"
  },
  {
    "address": "Россия, Республика Калмыкия, Элиста, 1-й микрорайон, 25, подъезд 1 ",
    "longitude": "44.259527",
    "latitude": "46.316955",
    "name": "Ширяева Ольга Алексеевна",
    "phone": "79610000634"
  },
  {
    "address": "Россия, Республика Калмыкия, Элиста, улица Джангара, 7 ",
    "longitude": "44.255368",
    "latitude": "46.309803",
    "name": "Попов Максим Тимофеевич",
    "phone": "79610000636"
  },
  {
    "address": "Россия, Республика Калмыкия, Элиста, 2-й микрорайон, 40, подъезд 4 ",
    "longitude": "44.295478",
    "latitude": "46.307556",
    "name": "Коновалова Дарья Артёмовна",
    "phone": "79610000638"
  },
  {
    "address": "Россия, Республика Калмыкия, Элиста, 4-й микрорайон, 40, подъезд 5 ",
    "longitude": "44.278652",
    "latitude": "46.325638",
    "name": "Ефимова Виктория Вадимовна",
    "phone": "79610000645"
  },
  {
    "address": "Россия, Республика Калмыкия, Элиста, микрорайон Молодёжный ",
    "longitude": "44.258215",
    "latitude": "46.322619",
    "name": "Колпакова Варвара Максимовна",
    "phone": "79610000646"
  },
  {
    "address": "Россия, Республика Калмыкия, Элиста, 9-й микрорайон, 25 ",
    "longitude": "44.312608",
    "latitude": "46.30176",
    "name": "Михайлова София Петровна",
    "phone": "79610000648"
  },
  {
    "address": "Россия, Республика Калмыкия, Элиста, 9-й микрорайон, 58, подъезд 4 ",
    "longitude": "44.310902",
    "latitude": "46.297912",
    "name": "Беляева Анна Марковна",
    "phone": "79610000651"
  },
  {
    "address": "Россия, Республика Калмыкия, Элиста, 1-й микрорайон, 20 ",
    "longitude": "44.258503",
    "latitude": "46.317223",
    "name": "Нестеров Артём Константинович",
    "phone": "79610000653"
  },
  {
    "address": "Россия, Республика Калмыкия, Элиста, улица Г.О. Рокчинского, 33 ",
    "longitude": "44.268007",
    "latitude": "46.321057",
    "name": "Жукова Татьяна Кирилловна",
    "phone": "79610000655"
  },
  {
    "address": "Россия, Республика Калмыкия, Элиста, 2-й микрорайон, 35Б, подъезд 2 ",
    "longitude": "44.298406",
    "latitude": "46.306249",
    "name": "Дроздов Максим Тимофеевич",
    "phone": "79610000659"
  },
  {
    "address": "Россия, Республика Калмыкия, Элиста, 4-й микрорайон, 8, подъезд 4 ",
    "longitude": "44.271951",
    "latitude": "46.320908",
    "name": "Назаров Даниил Иванович",
    "phone": "79610000660"
  },
  {
    "address": "Россия, Республика Калмыкия, Элиста, Волгоградская улица ",
    "longitude": "44.231742",
    "latitude": "46.317441",
    "name": "Горохов Александр Артёмович",
    "phone": "79610000663"
  },
  {
    "address": "Россия, Республика Калмыкия, Элиста, улица Илишкина, 1 ",
    "longitude": "44.267145",
    "latitude": "46.30623",
    "name": "Петухов Артур Даниилович",
    "phone": "79610000665"
  },
  {
    "address": "Россия, Республика Калмыкия, Элиста, улица Автомобилистов ",
    "longitude": "44.243079",
    "latitude": "46.300627",
    "name": "Мельников Алексей Владимирович",
    "phone": "79610000666"
  },
  {
    "address": "Россия, Республика Калмыкия, Элиста, 6-й микрорайон, 20, подъезд 1 ",
    "longitude": "44.288947",
    "latitude": "46.301013",
    "name": "Богданов Адам Макарович",
    "phone": "79610000670"
  },
  {
    "address": "Россия, Республика Калмыкия, Элиста, улица Лермонтова, 107 ",
    "longitude": "44.284814",
    "latitude": "46.298061",
    "name": "Сергеева Василиса Александровна",
    "phone": "79610000671"
  },
  {
    "address": "Россия, Республика Калмыкия, Элиста, Физкультурная улица, 27 ",
    "longitude": "44.243753",
    "latitude": "46.302339",
    "name": "Кононов Николай Иванович",
    "phone": "79610000673"
  },
  {
    "address": "Россия, Республика Калмыкия, Элиста, улица Пюрбеева ",
    "longitude": "44.30835",
    "latitude": "46.308421",
    "name": "Овчинников Даниил Александрович",
    "phone": "79610000674"
  },
  {
    "address": "Россия, Республика Калмыкия, Элиста, Демьяновская улица ",
    "longitude": "44.216013",
    "latitude": "46.319016",
    "name": "Рыбакова София Семёновна",
    "phone": "79610000675"
  },
  {
    "address": "Россия, Республика Калмыкия, Элиста, 3-й микрорайон, 21А ",
    "longitude": "44.269354",
    "latitude": "46.316943",
    "name": "Худяков Иван Алексеевич",
    "phone": "79610000680"
  },
  {
    "address": "Россия, Республика Калмыкия, Элиста, 3-й микрорайон, 6 ",
    "longitude": "44.275391",
    "latitude": "46.318966",
    "name": "Быкова Ева Алиевна",
    "phone": "79610000681"
  },
  {
    "address": "Россия, Республика Калмыкия, Элиста, микрорайон Молодёжный, 14, подъезд 1 ",
    "longitude": "44.258135",
    "latitude": "46.322893",
    "name": "Трофимова София Никитична",
    "phone": "79610000685"
  },
  {
    "address": "Россия, Республика Калмыкия, Элиста, улица Лизы Чайкиной, 15 ",
    "longitude": "44.290034",
    "latitude": "46.307021",
    "name": "Тимофеева Майя Святославовна",
    "phone": "79610000686"
  },
  {
    "address": "Россия, Республика Калмыкия, Элиста, улица Пюрбеева, 20А ",
    "longitude": "44.303005",
    "latitude": "46.310444",
    "name": "Филиппов Кирилл Максимович",
    "phone": "79610000687"
  },
  {
    "address": "Россия, Республика Калмыкия, Элиста, Троицкая улица, 29 ",
    "longitude": "44.25641",
    "latitude": "46.311907",
    "name": "Фролов Никита Андреевич",
    "phone": "79610000688"
  },
  {
    "address": "Россия, Республика Калмыкия, Элиста, 6-й микрорайон, 10 ",
    "longitude": "44.292468",
    "latitude": "46.3026",
    "name": "Чернов Михаил Григорьевич",
    "phone": "79610000689"
  },
  {
    "address": "Россия, Республика Калмыкия, Элиста, 4-й микрорайон, 18 ",
    "longitude": "44.277682",
    "latitude": "46.319787",
    "name": "Павлова Яна Евгеньевна",
    "phone": "79610000690"
  },
  {
    "address": "Россия, Республика Калмыкия, Элиста, 2-й микрорайон, 11, подъезд 1 ",
    "longitude": "44.303985",
    "latitude": "46.305788",
    "name": "Тихонова Ксения Платоновна",
    "phone": "79610000691"
  },
  {
    "address": "Россия, Республика Калмыкия, Элиста, 10-й микрорайон, 8 ",
    "longitude": "44.269381",
    "latitude": "46.325999",
    "name": "Успенский Анатолий Дмитриевич",
    "phone": "79610000692"
  },
  {
    "address": "Россия, Республика Калмыкия, Элиста, Троицкий въезд ",
    "longitude": "44.25906",
    "latitude": "46.313158",
    "name": "Николаева Ева Михайловна",
    "phone": "79610000695"
  },
  {
    "address": "Россия, Республика Калмыкия, Элиста, Аршанская улица, 6 ",
    "longitude": "44.239351",
    "latitude": "46.288771",
    "name": "Громов Алексей Матвеевич",
    "phone": "79610000697"
  },
  {
    "address": "Россия, Республика Калмыкия, Элиста, 8-й микрорайон, 31, подъезд 2 ",
    "longitude": "44.317693",
    "latitude": "46.305595",
    "name": "Золотарева Анастасия Данильевна",
    "phone": "79610000698"
  },
  {
    "address": "Россия, Республика Калмыкия, Элиста, улица Манцын Кец, 81 ",
    "longitude": "44.243519",
    "latitude": "46.292862",
    "name": "Ильинский Михаил Максимович",
    "phone": "79610000702"
  },
  {
    "address": "Россия, Республика Калмыкия, Элиста, улица А. Сусеева, 19 ",
    "longitude": "44.264027",
    "latitude": "46.304574",
    "name": "Гусев Фёдор Никитич",
    "phone": "79610000706"
  },
  {
    "address": "Россия, Республика Калмыкия, Элиста, улица Губаревича, 10 ",
    "longitude": "44.271735",
    "latitude": "46.308278",
    "name": "Волкова Виктория Егоровна",
    "phone": "79610000707"
  },
  {
    "address": "Россия, Республика Калмыкия, Элиста, 4-й микрорайон, 49, подъезд 5 ",
    "longitude": "44.271798",
    "latitude": "46.322812",
    "name": "Васильев Матвей Михайлович",
    "phone": "79610000708"
  },
  {
    "address": "Россия, Республика Калмыкия, Элиста, 10-й микрорайон, 19, подъезд 3 ",
    "longitude": "44.266273",
    "latitude": "46.326515",
    "name": "Иванов Даниэль Никитич",
    "phone": "79610000712"
  },
  {
    "address": "Россия, Республика Калмыкия, Элиста, улица Г.О. Рокчинского, 19, подъезд 6 ",
    "longitude": "44.267908",
    "latitude": "46.322507",
    "name": "Федотова Анна Егоровна",
    "phone": "79610000713"
  },
  {
    "address": "Россия, Республика Калмыкия, Элиста, 8-й микрорайон, 27, подъезд 1 ",
    "longitude": "44.313516",
    "latitude": "46.306684",
    "name": "Суворов Дмитрий Иванович",
    "phone": "79610000718"
  },
  {
    "address": "Россия, Республика Калмыкия, Элиста, 6-й микрорайон, 5, подъезд 6 ",
    "longitude": "44.295073",
    "latitude": "46.304767",
    "name": "Тихонова Дарья Робертовна",
    "phone": "79610000719"
  },
  {
    "address": "Россия, Республика Калмыкия, Элиста, улица Герасименко, 57А ",
    "longitude": "44.280404",
    "latitude": "46.317989",
    "name": "Беляева Полина Тимофеевна",
    "phone": "79610000723"
  },
  {
    "address": "Россия, Республика Калмыкия, Элиста, улица Илишкина, 3, подъезд 1 ",
    "longitude": "44.267306",
    "latitude": "46.305452",
    "name": "Денисова Диана Платоновна",
    "phone": "79610000724"
  },
  {
    "address": "Россия, Республика Калмыкия, Элиста, улица Скрипкина, 36А ",
    "longitude": "44.26418",
    "latitude": "46.288702",
    "name": "Рудакова Валерия Александровна",
    "phone": "79610000725"
  },
  {
    "address": "Россия, Республика Калмыкия, Элиста, 8-й микрорайон, 20 ",
    "longitude": "44.312599",
    "latitude": "46.306983",
    "name": "Савельев Кирилл Иванович",
    "phone": "79610000727"
  },
  {
    "address": "Россия, Республика Калмыкия, Элиста, 4-й микрорайон, 17 ",
    "longitude": "44.27664",
    "latitude": "46.319607",
    "name": "Демидова Диана Георгиевна",
    "phone": "79610000730"
  },
  {
    "address": "Россия, Республика Калмыкия, Элиста, 6-й микрорайон, 23 ",
    "longitude": "44.290483",
    "latitude": "46.30128",
    "name": "Новиков Арсений Матвеевич",
    "phone": "79610000732"
  },
  {
    "address": "Россия, Республика Калмыкия, Элиста, 6-й микрорайон, 8 ",
    "longitude": "44.294256",
    "latitude": "46.303073",
    "name": "Корнеева Агата Давидовна",
    "phone": "79610000734"
  },
  {
    "address": "Россия, Республика Калмыкия, Элиста, улица А. Сусеева, 8 ",
    "longitude": "44.267899",
    "latitude": "46.304848",
    "name": "Лапшин Артемий Макарович",
    "phone": "79610000735"
  },
  {
    "address": "Россия, Республика Калмыкия, Элиста, 1-й микрорайон, 20, подъезд 1 ",
    "longitude": "44.258808",
    "latitude": "46.317279",
    "name": "Ширяева Ольга Алексеевна",
    "phone": "79610000739"
  },
  {
    "address": "Россия, Республика Калмыкия, Элиста, улица Бадмаева ",
    "longitude": "44.277017",
    "latitude": "46.298977",
    "name": "Волков Арсений Тимофеевич",
    "phone": "79610000745"
  },
  {
    "address": "Россия, Республика Калмыкия, Элиста, 8-й микрорайон, 63, подъезд 1 ",
    "longitude": "44.312096",
    "latitude": "46.302731",
    "name": "Борисова София Адамовна",
    "phone": "79610000747"
  },
  {
    "address": "Россия, Республика Калмыкия, Элиста, Аршанская улица, 8А ",
    "longitude": "44.239899",
    "latitude": "46.288839",
    "name": "Васильева Ясмина Даниловна",
    "phone": "79610000749"
  },
  {
    "address": "Россия, Республика Калмыкия, Элиста, улица Г.О. Рокчинского, 17А ",
    "longitude": "44.270621",
    "latitude": "46.323061",
    "name": "Ефимова Виктория Вадимовна",
    "phone": "79610000750"
  },
  {
    "address": "Россия, Республика Калмыкия, Элиста, 1-й микрорайон, 53, подъезд 2 ",
    "longitude": "44.257838",
    "latitude": "46.320485",
    "name": "Колпакова Варвара Максимовна",
    "phone": "79610000751"
  },
  {
    "address": "Россия, Республика Калмыкия, Элиста,  Улумта, 3 ",
    "longitude": "44.243842",
    "latitude": "46.325227",
    "name": "Сидоров Алексей Андреевич",
    "phone": "79610000752"
  },
  {
    "address": "Россия, Республика Калмыкия, Элиста, 4-й микрорайон, 14, подъезд 3 ",
    "longitude": "44.275122",
    "latitude": "46.320049",
    "name": "Михайлова София Петровна",
    "phone": "79610000753"
  },
  {
    "address": "Россия, Республика Калмыкия, Элиста, 4-й микрорайон, 37, подъезд 4 ",
    "longitude": "44.277278",
    "latitude": "46.324318",
    "name": "Беляева Анна Марковна",
    "phone": "79610000756"
  },
  {
    "address": "Россия, Республика Калмыкия, Элиста, Ипподромная улица, 96 ",
    "longitude": "44.231715",
    "latitude": "46.32247",
    "name": "Нестеров Артём Константинович",
    "phone": "79610000758"
  },
  {
    "address": "Россия, Республика Калмыкия, Элиста, улица Г. Молоканова, 74 ",
    "longitude": "44.278221",
    "latitude": "46.315132",
    "name": "Овчинникова Маргарита Матвеевна",
    "phone": "79610000761"
  },
  {
    "address": "Россия, Республика Калмыкия, Элиста, Хошеутовская улица ",
    "longitude": "44.22496",
    "latitude": "46.332694",
    "name": "Соловьев Тимофей Тимурович",
    "phone": "79610000762"
  },
  {
    "address": "Россия, Республика Калмыкия, Элиста, 5-й микрорайон, 4 ",
    "longitude": "44.281374",
    "latitude": "46.322899",
    "name": "Дроздов Максим Тимофеевич",
    "phone": "79610000764"
  },
  {
    "address": "Россия, Республика Калмыкия, Элиста, улица М. Пюрвеева ",
    "longitude": "44.291193",
    "latitude": "46.298827",
    "name": "Мельников Алексей Владимирович",
    "phone": "79610000771"
  },
  {
    "address": "Россия, Республика Калмыкия, Элиста, 4-й микрорайон, 32 ",
    "longitude": "44.280323",
    "latitude": "46.324356",
    "name": "Давыдова Марьяна Всеволодовна",
    "phone": "79610000772"
  },
  {
    "address": "Россия, Республика Калмыкия, Элиста, Молодёжный переулок, 8 ",
    "longitude": "44.223531",
    "latitude": "46.304306",
    "name": "Тимофеева Надежда Глебовна",
    "phone": "79610000773"
  },
  {
    "address": "Россия, Республика Калмыкия, Элиста, 9-й микрорайон, 45 ",
    "longitude": "44.307389",
    "latitude": "46.300714",
    "name": "Беликов Даниил Арсентьевич",
    "phone": "79610000774"
  },
  {
    "address": "Россия, Республика Калмыкия, Элиста, 2-й микрорайон, 33, подъезд 1 ",
    "longitude": "44.303284",
    "latitude": "46.305539",
    "name": "Богданов Адам Макарович",
    "phone": "79610000775"
  },
  {
    "address": "Россия, Республика Калмыкия, Элиста, 9-й микрорайон, 58, подъезд 2 ",
    "longitude": "44.311081",
    "latitude": "46.297675",
    "name": "Сергеева Василиса Александровна",
    "phone": "79610000776"
  },
  {
    "address": "Россия, Республика Калмыкия, Элиста, 3-й микрорайон, 16, подъезд 3 ",
    "longitude": "44.269911",
    "latitude": "46.31792",
    "name": "Овчинников Даниил Александрович",
    "phone": "79610000779"
  },
  {
    "address": "Россия, Республика Калмыкия, Элиста, Шахматная улица ",
    "longitude": "44.252385",
    "latitude": "46.323914",
    "name": "Розанова Мария Георгиевна",
    "phone": "79610000783"
  },
  {
    "address": "Россия, Республика Калмыкия, Элиста, 9-й микрорайон, 5 ",
    "longitude": "44.304488",
    "latitude": "46.302725",
    "name": "Быкова Ева Алиевна",
    "phone": "79610000786"
  },
  {
    "address": "Россия, Республика Калмыкия, Элиста, 9-й микрорайон, 23, подъезд 2 ",
    "longitude": "44.310973",
    "latitude": "46.302108",
    "name": "Филиппов Кирилл Максимович",
    "phone": "79610000792"
  },
  {
    "address": "Россия, Республика Калмыкия, Элиста, 1-й микрорайон, 30 ",
    "longitude": "44.261395",
    "latitude": "46.315866",
    "name": "Чернов Михаил Григорьевич",
    "phone": "79610000794"
  },
  {
    "address": "Россия, Республика Калмыкия, Элиста, 4-й микрорайон, 5, подъезд 4 ",
    "longitude": "44.273002",
    "latitude": "46.322078",
    "name": "Павлова Яна Евгеньевна",
    "phone": "79610000795"
  },
  {
    "address": "Россия, Республика Калмыкия, Элиста, 1-й микрорайон, 15, подъезд 2 ",
    "longitude": "44.254739",
    "latitude": "46.314341",
    "name": "Тихонова Ксения Платоновна",
    "phone": "79610000796"
  },
  {
    "address": "Россия, Республика Калмыкия, Элиста, 3-й микрорайон, 1, подъезд 3 ",
    "longitude": "44.277682",
    "latitude": "46.317852",
    "name": "Успенский Анатолий Дмитриевич",
    "phone": "79610000797"
  },
  {
    "address": "Россия, Республика Калмыкия, Элиста, 6-й микрорайон, 26Б, подъезд 6 ",
    "longitude": "44.288911",
    "latitude": "46.300483",
    "name": "Макарова Полина Владиславовна",
    "phone": "79610000799"
  },
  {
    "address": "Россия, Республика Калмыкия, Элиста, Спортивная улица, 10 ",
    "longitude": "44.236063",
    "latitude": "46.300427",
    "name": "Николаева Ева Михайловна",
    "phone": "79610000800"
  },
  {
    "address": "Россия, Республика Калмыкия, Элиста, 2-й микрорайон, 36 ",
    "longitude": "44.295936",
    "latitude": "46.30656",
    "name": "Золотарева Анастасия Данильевна",
    "phone": "79610000803"
  },
  {
    "address": "Россия, Республика Калмыкия, Элиста, 1-й микрорайон, 23, подъезд 2 ",
    "longitude": "44.258781",
    "latitude": "46.315661",
    "name": "Александрова Елизавета Львовна",
    "phone": "79610000806"
  },
  {
    "address": "Россия, Республика Калмыкия, Элиста,  Мечникова, 36 ",
    "longitude": "44.284374",
    "latitude": "46.317086",
    "name": "Ильинский Михаил Максимович",
    "phone": "79610000807"
  },
  {
    "address": "Россия, Республика Калмыкия, Элиста, 2-й микрорайон, 14, подъезд 3 ",
    "longitude": "44.300778",
    "latitude": "46.310034",
    "name": "Маркова Елизавета Михайловна",
    "phone": "79610000809"
  },
  {
    "address": "Россия, Республика Калмыкия, Элиста, 4-й микрорайон, 37, подъезд 3 ",
    "longitude": "44.277358",
    "latitude": "46.324486",
    "name": "Гусев Фёдор Никитич",
    "phone": "79610000811"
  },
  {
    "address": "Россия, Республика Калмыкия, Элиста, улица Титова, 28 ",
    "longitude": "44.256185",
    "latitude": "46.309816",
    "name": "Федотова Анна Егоровна",
    "phone": "79610000818"
  },
  {
    "address": "Россия, Республика Калмыкия, Элиста, 1-й микрорайон, 35А, подъезд 2 ",
    "longitude": "44.26118",
    "latitude": "46.316613",
    "name": "Яковлев Семён Львович",
    "phone": "79610000820"
  },
  {
    "address": "Россия, Республика Калмыкия, Элиста, улица Бимбаева, 4 ",
    "longitude": "44.271735",
    "latitude": "46.303335",
    "name": "Сахарова Агния Эминовна",
    "phone": "79610000822"
  },
  {
    "address": "Россия, Республика Калмыкия, Элиста, улица Губаревича, 13, подъезд 1 ",
    "longitude": "44.272175",
    "latitude": "46.309697",
    "name": "Суворов Дмитрий Иванович",
    "phone": "79610000823"
  },
  {
    "address": "Россия, Республика Калмыкия, Элиста, 2-й микрорайон, 20 ",
    "longitude": "44.301379",
    "latitude": "46.309199",
    "name": "Тихонова Дарья Робертовна",
    "phone": "79610000824"
  },
  {
    "address": "Россия, Республика Калмыкия, Элиста, 5-й микрорайон, 9 ",
    "longitude": "44.286225",
    "latitude": "46.323926",
    "name": "Федорова Эмилия Ивановна",
    "phone": "79610000825"
  },
  {
    "address": "Россия, Республика Калмыкия, Элиста, 8-й микрорайон, 54 ",
    "longitude": "44.315178",
    "latitude": "46.301828",
    "name": "Щербаков Кирилл Максимович",
    "phone": "79610000827"
  },
  {
    "address": "Россия, Республика Калмыкия, Элиста, 8-й микрорайон, 11, подъезд 4 ",
    "longitude": "44.307263",
    "latitude": "46.306859",
    "name": "Беляева Полина Тимофеевна",
    "phone": "79610000828"
  },
  {
    "address": "Россия, Республика Калмыкия, Элиста, 1-й микрорайон, 27 ",
    "longitude": "44.260596",
    "latitude": "46.316893",
    "name": "Денисова Диана Платоновна",
    "phone": "79610000829"
  },
  {
    "address": "Россия, Республика Калмыкия, Элиста, 8-й микрорайон, 35 ",
    "longitude": "44.315806",
    "latitude": "46.303758",
    "name": "Маркина Амалия Макаровна",
    "phone": "79610000831"
  },
  {
    "address": "Россия, Республика Калмыкия, Элиста, улица Автомобилистов, 51 ",
    "longitude": "44.245513",
    "latitude": "46.300726",
    "name": "Новиков Арсений Матвеевич",
    "phone": "79610000837"
  },
  {
    "address": "Россия, Республика Калмыкия, Элиста, 1-й микрорайон, 32, подъезд 1 ",
    "longitude": "44.26303",
    "latitude": "46.316339",
    "name": "Лапшин Артемий Макарович",
    "phone": "79610000840"
  },
  {
    "address": "Россия, Республика Калмыкия, Элиста, 4-й микрорайон, 33, подъезд 1 ",
    "longitude": "44.279874",
    "latitude": "46.32481",
    "name": "Корнеева Агата Давидовна",
    "phone": "79610000845"
  },
  {
    "address": "Россия, Республика Калмыкия, Элиста, 1-й микрорайон, 32, подъезд 2 ",
    "longitude": "44.26303",
    "latitude": "46.316184",
    "name": "Виноградова Виктория Артёмовна",
    "phone": "79610000847"
  },
  {
    "address": "Россия, Республика Калмыкия, Элиста, 1-й микрорайон, 24, подъезд 4 ",
    "longitude": "44.257955",
    "latitude": "46.314908",
    "name": "Кудрявцева Мария Ярославовна",
    "phone": "79610000849"
  },
  {
    "address": "Россия, Республика Калмыкия, Элиста, улица Герасименко ",
    "longitude": "44.280134",
    "latitude": "46.314708",
    "name": "Волков Арсений Тимофеевич",
    "phone": "79610000850"
  },
  {
    "address": "Россия, Республика Калмыкия, Элиста, 1-й микрорайон, 1А, подъезд 1 ",
    "longitude": "44.257362",
    "latitude": "46.319389",
    "name": "Васильева Ясмина Даниловна",
    "phone": "79610000854"
  },
  {
    "address": "Россия, Республика Калмыкия, Элиста, Волгоградский переулок, 5 ",
    "longitude": "44.228849",
    "latitude": "46.31614",
    "name": "Ефимова Виктория Вадимовна",
    "phone": "79610000855"
  },
  {
    "address": "Россия, Республика Калмыкия, Элиста, Республиканская улица, 22 ",
    "longitude": "44.262617",
    "latitude": "46.309523",
    "name": "Семенова Дарья Арсентьевна",
    "phone": "79610000859"
  },
  {
    "address": "Россия, Республика Калмыкия, Элиста, Сахалинская улица, 27 ",
    "longitude": "44.197453",
    "latitude": "46.309125",
    "name": "Кондрашова Мария Степановна",
    "phone": "79610000860"
  },
  {
    "address": "Россия, Республика Калмыкия, Элиста, 6-й микрорайон, 11, подъезд 4 ",
    "longitude": "44.292244",
    "latitude": "46.302059",
    "name": "Молчанова Виктория Михайловна",
    "phone": "79610000864"
  },
  {
    "address": "Россия, Республика Калмыкия, Элиста, 3-й микрорайон, 5Б ",
    "longitude": "44.277017",
    "latitude": "46.318966",
    "name": "Жукова Татьяна Кирилловна",
    "phone": "79610000865"
  },
  {
    "address": "Россия, Республика Калмыкия, Элиста, улица Сухэ-Батора, 23 ",
    "longitude": "44.293591",
    "latitude": "46.302227",
    "name": "Овчинникова Маргарита Матвеевна",
    "phone": "79610000866"
  },
  {
    "address": "Россия, Республика Калмыкия, Элиста, улица Бамб Цецг, 81 ",
    "longitude": "44.244004",
    "latitude": "46.32458",
    "name": "Соловьев Тимофей Тимурович",
    "phone": "79610000867"
  },
  {
    "address": "Россия, Республика Калмыкия, Элиста, 10-й микрорайон, 11 ",
    "longitude": "44.270415",
    "latitude": "46.326795",
    "name": "Кузнецов Макар Михайлович",
    "phone": "79610000868"
  },
  {
    "address": "Россия, Республика Калмыкия, Элиста, 1-й микрорайон, 21 ",
    "longitude": "44.258081",
    "latitude": "46.316103",
    "name": "Дроздов Максим Тимофеевич",
    "phone": "79610000869"
  },
  {
    "address": "Россия, Республика Калмыкия, Элиста, Аршанская улица, 2 ",
    "longitude": "44.238964",
    "latitude": "46.288522",
    "name": "Назаров Даниил Иванович",
    "phone": "79610000870"
  },
  {
    "address": "Россия, Республика Калмыкия, Элиста, Троицкая улица, 23Б ",
    "longitude": "44.258242",
    "latitude": "46.310693",
    "name": "Горохов Александр Артёмович",
    "phone": "79610000873"
  },
  {
    "address": "Россия, Республика Калмыкия, Элиста, 4-й микрорайон, 33, подъезд 2 ",
    "longitude": "44.279829",
    "latitude": "46.324717",
    "name": "Петухов Артур Даниилович",
    "phone": "79610000875"
  },
  {
    "address": "Россия, Республика Калмыкия, Элиста, 4-й микрорайон, 31, подъезд 4 ",
    "longitude": "44.278454",
    "latitude": "46.324063",
    "name": "Мельников Алексей Владимирович",
    "phone": "79610000876"
  },
  {
    "address": "Россия, Республика Калмыкия, Элиста, Ипподромная улица ",
    "longitude": "44.239432",
    "latitude": "46.320771",
    "name": "Беликов Даниил Арсентьевич",
    "phone": "79610000879"
  },
  {
    "address": "Россия, Республика Калмыкия, Элиста, 2-й микрорайон, 32, подъезд 2 ",
    "longitude": "44.303338",
    "latitude": "46.305931",
    "name": "Быкова Надежда Марковна",
    "phone": "79610000882"
  },
  {
    "address": "Россия, Республика Калмыкия, Элиста, 2-й микрорайон, 38, подъезд 2 ",
    "longitude": "44.296448",
    "latitude": "46.307375",
    "name": "Овчинников Даниил Александрович",
    "phone": "79610000884"
  },
  {
    "address": "Россия, Республика Калмыкия, Элиста, 4-й микрорайон, 9 ",
    "longitude": "44.272409",
    "latitude": "46.32036",
    "name": "Матвеева Владислава Артёмовна",
    "phone": "79610000886"
  },
  {
    "address": "Россия, Республика Калмыкия, Элиста, 1-й микрорайон, 5 ",
    "longitude": "44.25667",
    "latitude": "46.316663",
    "name": "Фролов Денис Эмирович",
    "phone": "79610000887"
  },
  {
    "address": "Россия, Республика Калмыкия, Элиста, улица Лермонтова, 35 ",
    "longitude": "44.278688",
    "latitude": "46.302407",
    "name": "Розанова Мария Георгиевна",
    "phone": "79610000888"
  },
  {
    "address": "Россия, Республика Калмыкия, Элиста, улица Хомутникова, 2 ",
    "longitude": "44.254577",
    "latitude": "46.31182",
    "name": "Курочкина Дарья Львовна",
    "phone": "79610000889"
  },
  {
    "address": "Россия, Республика Калмыкия, Элиста, Советский переулок, 9 ",
    "longitude": "44.286153",
    "latitude": "46.307276",
    "name": "Худяков Иван Алексеевич",
    "phone": "79610000890"
  },
  {
    "address": "Россия, Республика Калмыкия, Элиста, въезд Нефтяников ",
    "longitude": "44.216767",
    "latitude": "46.312138",
    "name": "Быкова Ева Алиевна",
    "phone": "79610000891"
  },
  {
    "address": "Россия, Республика Калмыкия, Элиста, улица А.С. Пушкина, 11 ",
    "longitude": "44.270567",
    "latitude": "46.308004",
    "name": "Гордеев Пётр Макарович",
    "phone": "79610000892"
  },
  {
    "address": "Россия, Республика Калмыкия, Элиста, 9-й микрорайон, 8, подъезд 1 ",
    "longitude": "44.304407",
    "latitude": "46.301915",
    "name": "Тимофеева Майя Святославовна",
    "phone": "79610000896"
  },
  {
    "address": "Россия, Республика Калмыкия, Элиста, 4-й микрорайон, 23 ",
    "longitude": "44.277772",
    "latitude": "46.322121",
    "name": "Фролов Никита Андреевич",
    "phone": "79610000898"
  },
  {
    "address": "Россия, Республика Калмыкия, Элиста, 6-й микрорайон, 9 ",
    "longitude": "44.293205",
    "latitude": "46.302725",
    "name": "Успенский Анатолий Дмитриевич",
    "phone": "79610000902"
  },
  {
    "address": "Россия, Республика Калмыкия, Элиста, улица Николаева, 54 ",
    "longitude": "44.249978",
    "latitude": "46.304275",
    "name": "Захарова Мирослава Константиновна",
    "phone": "79610000903"
  },
  {
    "address": "Россия, Республика Калмыкия, Элиста, Троицкая улица, 5 ",
    "longitude": "44.259195",
    "latitude": "46.312113",
    "name": "Макарова Полина Владиславовна",
    "phone": "79610000904"
  },
  {
    "address": "Россия, Республика Калмыкия, Элиста, Демьяновский переулок, 67 ",
    "longitude": "44.226074",
    "latitude": "46.320541",
    "name": "Николаева Ева Михайловна",
    "phone": "79610000905"
  },
  {
    "address": "Россия, Республика Калмыкия, Элиста, 8-й микрорайон, 35А, подъезд 3 ",
    "longitude": "44.315339",
    "latitude": "46.304605",
    "name": "Громов Алексей Матвеевич",
    "phone": "79610000907"
  },
  {
    "address": "Россия, Республика Калмыкия, Элиста, 6-й микрорайон, 38 ",
    "longitude": "44.287563",
    "latitude": "46.299767",
    "name": "Золотарева Анастасия Данильевна",
    "phone": "79610000908"
  },
  {
    "address": "Россия, Республика Калмыкия, Элиста, Троицкая улица, 31 ",
    "longitude": "44.256536",
    "latitude": "46.312131",
    "name": "Соколов Тимофей Максимович",
    "phone": "79610000909"
  },
  {
    "address": "Россия, Республика Калмыкия, Элиста, улица М. Пюрвеева, 4 ",
    "longitude": "44.290788",
    "latitude": "46.298784",
    "name": "Александрова Елизавета Львовна",
    "phone": "79610000911"
  },
  {
    "address": "Россия, Республика Калмыкия, Элиста, 1-й микрорайон, 2 ",
    "longitude": "44.254496",
    "latitude": "46.316626",
    "name": "Ильинский Михаил Максимович",
    "phone": "79610000912"
  },
  {
    "address": "Россия, Республика Калмыкия, Элиста, 1-й микрорайон, 23, подъезд 3 ",
    "longitude": "44.25879",
    "latitude": "46.315536",
    "name": "Маркова Елизавета Михайловна",
    "phone": "79610000914"
  },
  {
    "address": "Россия, Республика Калмыкия, Элиста, улица А.С. Пушкина, 52А ",
    "longitude": "44.267549",
    "latitude": "46.31497",
    "name": "Васильев Матвей Михайлович",
    "phone": "79610000918"
  },
  {
    "address": "Россия, Республика Калмыкия, Элиста, улица Г. Молоканова, 49 ",
    "longitude": "44.277116",
    "latitude": "46.314752",
    "name": "Поздняков Максим Захарович",
    "phone": "79610000920"
  },
  {
    "address": "Россия, Республика Калмыкия, Элиста, улица Изотова, 68 ",
    "longitude": "44.244408",
    "latitude": "46.3042",
    "name": "Иванов Даниэль Никитич",
    "phone": "79610000922"
  },
  {
    "address": "Россия, Республика Калмыкия, Элиста, улица Бимбаева, 18 ",
    "longitude": "44.273343",
    "latitude": "46.302606",
    "name": "Сахарова Агния Эминовна",
    "phone": "79610000927"
  },
  {
    "address": "Россия, Республика Калмыкия, Элиста, 2-й микрорайон, 12, подъезд 1 ",
    "longitude": "44.303239",
    "latitude": "46.305059",
    "name": "Суворов Дмитрий Иванович",
    "phone": "79610000928"
  },
  {
    "address": "Россия, Республика Калмыкия, Элиста, 1-й микрорайон, 45, подъезд 4 ",
    "longitude": "44.256616",
    "latitude": "46.313096",
    "name": "Горбунов Иван Ильич",
    "phone": "79610000931"
  },
  {
    "address": "Россия, Республика Калмыкия, Элиста, улица Г.О. Рокчинского, 17Б ",
    "longitude": "44.270208",
    "latitude": "46.324175",
    "name": "Щербаков Кирилл Максимович",
    "phone": "79610000932"
  },
  {
    "address": "Россия, Республика Калмыкия, Элиста, улица А. Сусеева, 31 ",
    "longitude": "44.260982",
    "latitude": "46.304549",
    "name": "Рудакова Валерия Александровна",
    "phone": "79610000935"
  },
  {
    "address": "Россия, Республика Калмыкия, Элиста, 2-й микрорайон, 31, подъезд 1 ",
    "longitude": "44.304263",
    "latitude": "46.306168",
    "name": "Демидова Диана Георгиевна",
    "phone": "79610000940"
  },
  {
    "address": "Россия, Республика Калмыкия, Элиста, Ипподромная улица, 13, подъезд 4 ",
    "longitude": "44.235227",
    "latitude": "46.321375",
    "name": "Дмитриев Иван Михайлович",
    "phone": "79610000941"
  },
  {
    "address": "Россия, Республика Калмыкия, Элиста, 1-й микрорайон, 6, подъезд 2 ",
    "longitude": "44.256868",
    "latitude": "46.316159",
    "name": "Лапшин Артемий Макарович",
    "phone": "79610000945"
  },
  {
    "address": "Россия, Республика Калмыкия, Элиста, 2-й микрорайон, 27, подъезд 1 ",
    "longitude": "44.305009",
    "latitude": "46.307905",
    "name": "Демидова Диана Георгиевна",
    "phone": "79610000946"
  },
  {
    "address": "Россия, Республика Калмыкия, Элиста, 4-й микрорайон, 17, подъезд 3 ",
    "longitude": "44.276541",
    "latitude": "46.319669",
    "name": "Дмитриев Иван Михайлович",
    "phone": "79610000947"
  },
  {
    "address": "Россия, Республика Калмыкия, Элиста, улица Улан-Туг ",
    "longitude": "44.289432",
    "latitude": "46.304549",
    "name": "Новиков Арсений Матвеевич",
    "phone": "79610000948"
  },
  {
    "address": "Россия, Республика Калмыкия, Элиста, 6-й микрорайон, 7, подъезд 1 ",
    "longitude": "44.294157",
    "latitude": "46.30374",
    "name": "Корнеева Агата Давидовна",
    "phone": "79610000950"
  },
  {
    "address": "Россия, Республика Калмыкия, Элиста, 1-й микрорайон, 17, подъезд 3 ",
    "longitude": "44.255808",
    "latitude": "46.313943",
    "name": "Виноградова Виктория Артёмовна",
    "phone": "79610000952"
  },
  {
    "address": "Россия, Республика Калмыкия, Элиста, Ипподромная улица, 101 ",
    "longitude": "44.232425",
    "latitude": "46.323926",
    "name": "Коновалова Дарья Артёмовна",
    "phone": "79610000953"
  },
  {
    "address": "Россия, Республика Калмыкия, Элиста, 4-й микрорайон, 37, подъезд 1 ",
    "longitude": "44.27752",
    "latitude": "46.324835",
    "name": "Кудрявцева Мария Ярославовна",
    "phone": "79610000954"
  },
  {
    "address": "Россия, Республика Калмыкия, Элиста, Родниковый переулок, 12А ",
    "longitude": "44.232515",
    "latitude": "46.310388",
    "name": "Волков Арсений Тимофеевич",
    "phone": "79610000955"
  },
  {
    "address": "Россия, Республика Калмыкия, Элиста, улица Сухэ-Батора, 19 ",
    "longitude": "44.29484",
    "latitude": "46.303098",
    "name": "Шульгина Диана Евгеньевна",
    "phone": "79610000956"
  },
  {
    "address": "Россия, Республика Калмыкия, Элиста, 9-й микрорайон, 32, подъезд 3 ",
    "longitude": "44.311791",
    "latitude": "46.300191",
    "name": "Андреев Данила Эминович",
    "phone": "79610000958"
  },
  {
    "address": "Россия, Республика Калмыкия, Элиста, Республиканская улица, 13 ",
    "longitude": "44.26772",
    "latitude": "46.310662",
    "name": "Васильева Ясмина Даниловна",
    "phone": "79610000959"
  },