[
  {
    "title": "Канзаши Sushi",
    "address": "Элиста Будённого, 7А",
    "latitude": 46.318231,
    "longitude": 44.260605,
    "OSMGeocodeAddress": "ТЦ «Кит», 7А, улица им. С.М. Будённого, Элиста, городской округ Элиста, Калмыкия, Южный федеральный округ, 358007, Россия"
  },
  {
    "title": "Пицца Лайк",
    "address": "Элиста 8-й микрорайон, 49А",
    "latitude": 46.303702,
    "longitude": 44.314737,
    "OSMGeocodeAddress": "49А, 8-й микрорайон, Элиста, городской округ Элиста, Калмыкия, Южный федеральный округ, 358014, Россия"
  },
  {
    "title": "Кафе РАЛЬФ",
    "address": "Элиста 3-й микрорайон, 17Б",
    "latitude": 46.318568,
    "longitude": 44.268896,
    "OSMGeocodeAddress": "Сатурн, 17Б, 3-й микрорайон, Элиста, городской округ Элиста, Калмыкия, Южный федеральный округ, 358009, Россия"
  },
  {
    "title": "Корё",
    "address": "Элиста Номто Очирова, 5",
    "latitude": 46.30707,
    "longitude": 44.268816,
    "OSMGeocodeAddress": "Прага, 5, улица им. Номто Очирова, Элиста, городской округ Элиста, Калмыкия, Южный федеральный округ, 358000, Россия"
  },
  {
    "title": "CRAFTBAR ВОСТОК",
    "address": "Элиста Будённого, 3А",
    "latitude": 46.318854,
    "longitude": 44.264719,
    "OSMGeocodeAddress": "3А, улица им. С.М. Будённого, Элиста, городской округ Элиста, Калмыкия, Южный федеральный округ, 358009, Россия"
  },
  {
    "title": "Орегано",
    "address": "Элиста Хрущёва, 29",
    "latitude": 46.302912,
    "longitude": 44.308997,
    "OSMGeocodeAddress": "29, улица им. Н.С.Хрущева, 9-й микрорайон, Элиста, городской округ Элиста, Калмыкия, Южный федеральный округ, 358014, Россия"
  },
  {
    "title": "Гирос_08",
    "address": "Элиста 2-й микрорайон, 29",
    "latitude": 46.306722,
    "longitude": 44.304559,
    "OSMGeocodeAddress": "У Альмы, 29, 2-й микрорайон, Элиста, городской округ Элиста, Калмыкия, Южный федеральный округ, 358000, Россия"
  },
  {
    "title": "Доставка Pomidor",
    "address": "Элиста Клыкова, 4",
    "latitude": 46.306541,
    "longitude": 44.272876,
    "OSMGeocodeAddress": "Горотдел, 4, улица Ю. Клыкова, 101-й квартал, Элиста, городской округ Элиста, Калмыкия, Южный федеральный округ, 358000, Россия"
  },
  {
    "title": "Gourmet",
    "address": "Элиста Илишкина, 21",
    "latitude": 46.303945,
    "longitude": 44.26772,
    "OSMGeocodeAddress": "21, улица И.К. Илишкина, Элиста, городской округ Элиста, Калмыкия, Южный федеральный округ, 358000, Россия"
  },
  {
    "title": "Сән шашлык",
    "address": "Элиста  Алёхиных, 29А",
    "latitude": 46.310363,
    "longitude": 44.264081,
    "OSMGeocodeAddress": "29А, улица Братьев Алёхиных, Элиста, городской округ Элиста, Калмыкия, Южный федеральный округ, 358007, Россия"
  },
  {
    "title": "Этно-Хауз",
    "address": "Элиста Клыкова, 106А",
    "latitude": 46.309585,
    "longitude": 44.292845,
    "OSMGeocodeAddress": "Этно-Хауз, 106А, улица Ю. Клыкова, 101-й квартал, Элиста, городской округ Элиста, Калмыкия, Южный федеральный округ, 358000, Россия"
  },
  {
    "title": "РИС",
    "address": "Элиста  Ленина, 280",
    "latitude": 46.312623,
    "longitude": 44.302107,
    "OSMGeocodeAddress": "Магнит, 280, улица Ленина, 101-й квартал, Элиста, городской округ Элиста, Калмыкия, Южный федеральный округ, 358014, Россия"
  },
  {
    "title": "JOHNSON",
    "address": "Элиста 8-й микрорайон, 16",
    "latitude": 46.304151,
    "longitude": 44.306545,
    "OSMGeocodeAddress": "16, 8-й микрорайон, Элиста, городской округ Элиста, Калмыкия, Южный федеральный округ, 358000, Россия"
  },
  {
    "title": "Пловная Barbarise",
    "address": "Элиста Пюрбеева, 6",
    "latitude": 46.311384,
    "longitude": 44.300086,
    "OSMGeocodeAddress": "6, улица Пюрбеева, 101-й квартал, Элиста, городской округ Элиста, Калмыкия, Южный федеральный округ, 358014, Россия"
  },
  {
    "title": "DZEN EDA",
    "address": "Элиста Ростовский , 4",
    "latitude": 46.318207,
    "longitude": 44.244121,
    "OSMGeocodeAddress": "4, Ростовский проезд, Элиста, городской округ Элиста, Калмыкия, Южный федеральный округ, 358005, Россия"
  },
  {
    "title": "Сытый крот",
    "address": "Элиста Клыкова, 126",
    "latitude": 46.310208,
    "longitude": 44.297615,
    "OSMGeocodeAddress": "Кермен, 126, улица Ю. Клыкова, 101-й квартал, Элиста, городской округ Элиста, Калмыкия, Южный федеральный округ, 358000, Россия"
  },
  {
    "title": "Мастер суши - №2",
    "address": "Элиста 6-й микрорайон, 25",
    "latitude": 46.299643,
    "longitude": 44.289046,
    "OSMGeocodeAddress": "25, 6-й микрорайон, Элиста, городской округ Элиста, Калмыкия, Южный федеральный округ, 358000, Россия"
  },
  {
    "title": "MINARI",
    "address": "Элиста Петра Бураева, 25",
    "latitude": 46.286155,
    "longitude": 44.230844,
    "OSMGeocodeAddress": "25, улица Петра Бураева, городской округ Элиста, Калмыкия, Южный федеральный округ, 358903, Россия"
  },
  {
    "title": "«Три Пирога»",
    "address": "Элиста Сухэ-Батора, 20",
    "latitude": 46.301019,
    "longitude": 44.292567,
    "OSMGeocodeAddress": "улица Сухэ-Батора, 101-й квартал, Элиста, городской округ Элиста, Калмыкия, Южный федеральный округ, 358016, Россия"
  },
  {
    "title": "Суши Даром",
    "address": "Элиста Ленина, 261",
    "latitude": 46.309386,
    "longitude": 44.271609,
    "OSMGeocodeAddress": "Юнистрим, 261, улица Ленина, Элиста, городской округ Элиста, Калмыкия, Южный федеральный округ, 358000, Россия"
  },
  {
    "title": "EL FOOD",
    "address": "Элиста 1-й микрорайон, 5Г",
    "latitude": 46.318287,
    "longitude": 44.25667,
    "OSMGeocodeAddress": "5Г, 1-й микрорайон, Элиста, городской округ Элиста, Калмыкия, Южный федеральный округ, 358007, Россия"
  },
  {
    "title": "Steak House",
    "address": "Элиста Чкалова, 38",
    "latitude": 46.310693,
    "longitude": 44.276658,
    "OSMGeocodeAddress": "38, улица Чкалова, Элиста, городской округ Элиста, Калмыкия, Южный федеральный округ, 358000, Россия"
  },
  {
    "title": "Чебуречная",
    "address": "Элиста 1-й микрорайон, 26",
    "latitude": 46.317242,
    "longitude": 44.259752,
    "OSMGeocodeAddress": "НоваЯ, 26, 1-й микрорайон, Элиста, городской округ Элиста, Калмыкия, Южный федеральный округ, 358007, Россия"
  },
  {
    "title": "Жар - Птица",
    "address": "Элиста Ленина 14",
    "latitude": 46.309909,
    "longitude": 44.247822,
    "OSMGeocodeAddress": "14, Верхняя Ленина улица, Элиста, городской округ Элиста, Калмыкия, Южный федеральный округ, 358004, Россия"
  },
  {
    "title": "Токио Рим",
    "address": "Элиста 9-й микрорайон, 21",
    "latitude": 46.302463,
    "longitude": 44.309913,
    "OSMGeocodeAddress": "21, 9-й микрорайон, Элиста, городской округ Элиста, Калмыкия, Южный федеральный округ, 358000, Россия"
  },
  {
    "title": "KANNAM CHICKEN ELISTA",
    "address": "Элиста Клыкова, 22",
    "latitude": 46.307251,
    "longitude": 44.278194,
    "OSMGeocodeAddress": "22, улица Ю. Клыкова, 101-й квартал, Элиста, городской округ Элиста, Калмыкия, Южный федеральный округ, 358000, Россия"
  },
  {
    "title": "Пиццерия «Сицилия»",
    "address": "Элиста Пушкина, 38",
    "latitude": 46.31144,
    "longitude": 44.268735,
    "OSMGeocodeAddress": "Таймаут, 38, улица А.С. Пушкина, Элиста, городской округ Элиста, Калмыкия, Южный федеральный округ, 358009, Россия"
  },
  {
    "title": "Oirad Community Center",
    "address": "Элиста Чапаева, 70",
    "latitude": 46.316694,
    "longitude": 44.277646,
    "OSMGeocodeAddress": "70, улица Чапаева, Элиста, городской округ Элиста, Калмыкия, Южный федеральный округ, 358009, Россия"
  },
  {
    "title": "Chipollino",
    "address": "Элиста  Ленина, 255А",
    "latitude": 46.309143,
    "longitude": 44.270334,
    "OSMGeocodeAddress": "Tatlers, 255А, улица Ленина, Элиста, городской округ Элиста, Калмыкия, Южный федеральный округ, 358000, Россия"
  },
  {
    "title": "Кафе Томико",
    "address": "Элиста   Пушкина, 3А",
    "latitude": 46.304287,
    "longitude": 44.271807,
    "OSMGeocodeAddress": "Томико, 3А, улица А. С. Пушкина, Элиста, городской округ Элиста, Калмыкия, Южный федеральный округ, 358000, Россия"
  },
  {
    "title": "ШашлыкOFF_08",
    "address": "Элиста Володарского, 17",
    "latitude": 46.313314,
    "longitude": 44.242989,
    "OSMGeocodeAddress": "17, улица Володарского, Элиста, городской округ Элиста, Калмыкия, Южный федеральный округ, 358005, Россия"
  },
  {
    "title": "Kikchak",
    "address": "Элиста  Ленина, 278А",
    "latitude": 46.312007,
    "longitude": 44.301218,
    "OSMGeocodeAddress": "278А, улица Ленина, 101-й квартал, Элиста, городской округ Элиста, Калмыкия, Южный федеральный округ, 358014, Россия"
  },
  {
    "title": "Пальчики оближешь",
    "address": "Элиста Басангова, 2",
    "latitude": 46.302314,
    "longitude": 44.270136,
    "OSMGeocodeAddress": "2, улица Б. Басангова, Элиста, городской округ Элиста, Калмыкия, Южный федеральный округ, 358000, Россия"
  },
  {
    "title": "Мега суши",
    "address": "Элиста  Будённого, 1А",
    "latitude": 46.318107,
    "longitude": 44.26542,
    "OSMGeocodeAddress": "1А, улица им. С.М. Будённого, Элиста, городской округ Элиста, Калмыкия, Южный федеральный округ, 358009, Россия"
  },
  {
    "title": "CRAFTBAR ЦЕНТР",
    "address": "Элиста  Ленина, 249",
    "latitude": 46.309006,
    "longitude": 44.269049,
    "OSMGeocodeAddress": "Калмыцкая республиканская организация Общероссийского Профсоюза образования, 249, улица Ленина, Элиста, городской округ Элиста, Калмыкия, Южный федеральный округ, 358000, Россия"
  },
  {
    "title": "Tako bell",
    "address": "Элиста Губаревича, 5Б",
    "latitude": 46.308166,
    "longitude": 44.27293,
    "OSMGeocodeAddress": "Инвитро, 5Б, улица Губаревича, Элиста, городской округ Элиста, Калмыкия, Южный федеральный округ, 358000, Россия"
  },
  {
    "title": "Калмыцкая кухня N1",
    "address": "Элиста Сухэ-Батора, 9",
    "latitude": 46.304916,
    "longitude": 44.297355,
    "OSMGeocodeAddress": "Республиканская Спортивная Школа Олимпийского Резерва по Борьбе, 9, улица Сухэ-Батора, 2-й микрорайон, Элиста, городской округ Элиста, Калмыкия, Южный федеральный округ, 358014, Россия"
  },
  {
    "title": "Кафе Шлашык",
    "address": "Элиста Клыкова, 4",
    "latitude": 46.306541,
    "longitude": 44.272876,
    "OSMGeocodeAddress": "Горотдел, 4, улица Ю. Клыкова, 101-й квартал, Элиста, городской округ Элиста, Калмыкия, Южный федеральный округ, 358000, Россия"
  },
  {
    "title": "Mr. Papa Grill",
    "address": "Элиста Номто Очирова, 4",
    "latitude": 46.306554,
    "longitude": 44.267755,
    "OSMGeocodeAddress": "Папа Гриль, 4, улица им. Номто Очирова, Элиста, городской округ Элиста, Калмыкия, Южный федеральный округ, 358000, Россия"
  },
  {
    "title": "Кафе 7 - Я",
    "address": "Элиста  Ленина, 337",
    "latitude": 46.313389,
    "longitude": 44.298271,
    "OSMGeocodeAddress": "337, улица Ленина, 101-й квартал, Элиста, городской округ Элиста, Калмыкия, Южный федеральный округ, 358003, Россия"
  }
]
